id,ident,type,name,latitude_deg,longitude_deg,elevation_ft,continent,iso_country,iso_region,municipality,scheduled_service,gps_code,iata_code,local_code,home_link,wikipedia_link,keywords
45229,AMC,large_airport,Mar de Cortés International Airport,31.351621,-113.305864,71,NA,MX,MX-SON,Puerto Peñasco,yes,MMPE,PPE,,,http://en.wikipedia.org/wiki/Mar_de_Cort%C3%A9s_International_Airport,
67,AYPY,large_airport,Port Moresby Jacksons International Airport,-9.443380356,147.2200012,146,OC,PG,PG-NCD,Port Moresby,yes,AYPY,POM,,,http://en.wikipedia.org/wiki/Jacksons_International_Airport,
123,BIKF,large_airport,Keflavik International Airport,63.98500061,-22.60560036,171,EU,IS,IS-2,Reykjavík,yes,BIKF,KEF,,,http://en.wikipedia.org/wiki/Keflav%C3%ADk_International_Airport,"Keflavik Naval Air Station,REK"
4614,BKPR,large_airport,Priština International Airport,42.5728,21.035801,1789,EU,XK,XK-01,Prishtina,yes,BKPR,PRN,,http://www.airportpristina.com/,https://en.wikipedia.org/wiki/Pristina_International_Airport,"LYPR, Pristina, Slatina Air Base"
320983,CA-0671,large_airport,Cyll,53.310365,-110.072021,,NA,CA,CA-U-A,,yes,,,,,,
325053,CA-0687,large_airport,yyz,0,0,,NA,CA,CA-U-A,,no,,,,,,
1717,CYEG,large_airport,Edmonton International Airport,53.30970001,-113.5800018,2373,NA,CA,CA-AB,Edmonton,yes,CYEG,YEG,CYEG,http://www.edmontonairports.com/,http://en.wikipedia.org/wiki/Edmonton_International_Airport,YEA
1770,CYHZ,large_airport,Halifax / Stanfield International Airport,44.88079834,-63.50859833,477,NA,CA,CA-NS,Halifax,yes,CYHZ,YHZ,,http://www.hiaa.ca/,http://en.wikipedia.org/wiki/Halifax_International_Airport,Robert L. Stanfield International Airport
1840,CYOW,large_airport,Ottawa Macdonald-Cartier International Airport,45.32249832,-75.66919708,374,NA,CA,CA-ON,Ottawa,yes,CYOW,YOW,YOW,http://www.ottawa-airport.ca/,http://en.wikipedia.org/wiki/Ottawa_Macdonald-Cartier_International_Airport,"Uplands, UUP, CUUP"
1928,CYUL,large_airport,Montreal / Pierre Elliott Trudeau International Airport,45.47060013,-73.74079895,118,NA,CA,CA-QC,Montréal,yes,CYUL,YUL,YUL,http://www.admtl.com/passager/Home.aspx,http://en.wikipedia.org/wiki/Montr%C3%A9al-Pierre_Elliott_Trudeau_International_Airport,"YMQ, Dorval Airport"
1941,CYVR,large_airport,Vancouver International Airport,49.19390106,-123.1839981,14,NA,CA,CA-BC,Vancouver,yes,CYVR,YVR,,http://www.yvr.ca/,http://en.wikipedia.org/wiki/Vancouver_International_Airport,
1946,CYWG,large_airport,Winnipeg / James Armstrong Richardson International Airport,49.90999985,-97.23989868,783,NA,CA,CA-MB,Winnipeg,yes,CYWG,YWG,YWG,http://www.waa.ca/,http://en.wikipedia.org/wiki/Winnipeg_James_Armstrong_Richardson_International_Airport,CFB Winnipeg
1973,CYYC,large_airport,Calgary International Airport,51.11389923,-114.0199966,3557,NA,CA,CA-AB,Calgary,yes,CYYC,YYC,,http://www.calgaryairport.com/,http://en.wikipedia.org/wiki/Calgary_International_Airport,McCall Field
1979,CYYJ,large_airport,Victoria International Airport,48.64690018,-123.4260025,63,NA,CA,CA-BC,Victoria,yes,CYYJ,YYJ,,http://www.victoriaairport.com/,http://en.wikipedia.org/wiki/Victoria_International_Airport,
1986,CYYT,large_airport,St. John's International Airport,47.61859894,-52.75189972,461,NA,CA,CA-NL,St. John's,yes,CYYT,YYT,,http://www.stjohnsairport.com/,http://en.wikipedia.org/wiki/St._John's_International_Airport,
1990,CYYZ,large_airport,Lester B. Pearson International Airport,43.67720032,-79.63059998,569,NA,CA,CA-ON,Toronto,yes,CYYZ,YYZ,YYZ,http://www.gtaa.com/,http://en.wikipedia.org/wiki/Toronto_Pearson_International_Airport,"YTO, Toronto International Airport, Malton"
2050,DAAG,large_airport,Houari Boumediene Airport,36.69100189,3.215409994,82,AF,DZ,DZ-35,Algiers,yes,DAAG,ALG,,,http://en.wikipedia.org/wiki/Houari_Boumedienne_Airport,
2090,DGAA,large_airport,Kotoka International Airport,5.6051898,-0.166786,205,AF,GH,GH-AA,Accra,yes,DGAA,ACC,,,http://en.wikipedia.org/wiki/Kotoka_International_Airport,
2104,DNAA,large_airport,Nnamdi Azikiwe International Airport,9.006790161,7.263169765,1123,AF,NG,NG-FC,Abuja,yes,DNAA,ABV,,http://www.faannigeria.org/nigeria-airport.php?airport=3,http://en.wikipedia.org/wiki/Nnamdi_Azikiwe_International_Airport,
309668,DNAI,large_airport,Akwa Ibom International Airport,4.8725,8.093,170,AF,NG,NG-AK,Uyo,yes,DNAI,QUO,,http://www.ibomairport.com.ng/,http://en.wikipedia.org/wiki/Akwa_Ibom_Airport,
2118,DNMM,large_airport,Murtala Muhammed International Airport,6.577370167,3.321160078,135,AF,NG,NG-LA,Lagos,yes,DNMM,LOS,,http://www.faannigeria.org/nigeria-airport.php?airport=1,http://en.wikipedia.org/wiki/Murtala_Mohammed_International_Airport,
2133,DTTA,large_airport,Tunis Carthage International Airport,36.85100174,10.22719955,22,AF,TN,TN-11,Tunis,yes,DTTA,TUN,,http://www.oaca.nat.tn/english/div_horizontal_tunis_airport_eng.htm,http://en.wikipedia.org/wiki/Tunis-Carthage_International_Airport,"Aéroport international de Tunis-Carthage, مطار تونس قرطاج الدولي"
2155,EBBR,large_airport,Brussels Airport,50.90140152,4.48443985,184,EU,BE,BE-BRU,Brussels,yes,EBBR,BRU,,http://www.brusselsairport.be/en/,http://en.wikipedia.org/wiki/Brussels_Airport,
2157,EBCI,large_airport,Brussels South Charleroi Airport,50.459202,4.45382,614,EU,BE,BE-WHT,Brussels,yes,EBCI,CRL,,http://www.charleroi-airport.com/doc.php?nd=o29&tid=29&lg=2&docid=1&site=1,http://en.wikipedia.org/wiki/Brussels_South_Charleroi_Airport,Gosselies Airport
2162,EBLG,large_airport,Liège Airport,50.63740158,5.443220139,659,EU,BE,BE-WLG,Liège,yes,EBLG,LGG,,http://www.liegeairport.be/,http://en.wikipedia.org/wiki/Li%C3%A8ge_Airport,
2209,EDDB,large_airport,Berlin-Schönefeld Airport,52.380001,13.5225,157,EU,DE,DE-BR,Berlin,yes,EDDB,SXF,,http://www.berlin-airport.de/en/travellers-sxf/index.php,http://en.wikipedia.org/wiki/Berlin-Sch%C3%B6nefeld_International_Airport,"BER, Schoenefeld"
2210,EDDC,large_airport,Dresden Airport,51.13280106,13.76720047,755,EU,DE,DE-SN,Dresden,yes,EDDC,DRS,,http://www.dresden-airport.de/en/index.html,http://en.wikipedia.org/wiki/Dresden_Airport,
2212,EDDF,large_airport,Frankfurt am Main Airport,50.033333,8.570556,364,EU,DE,DE-HE,Frankfurt am Main,yes,EDDF,FRA,,http://www.frankfurt-airport.de/,http://en.wikipedia.org/wiki/Frankfurt_Airport,"EDAF, Rhein-Main Air Base"
2213,EDDG,large_airport,Münster Osnabrück Airport,52.13460159,7.684830189,160,EU,DE,DE-NW,Münster,yes,EDDG,FMO,,,http://en.wikipedia.org/wiki/M%C3%BCnster_Osnabr%C3%BCck_International_Airport,
2214,EDDH,large_airport,Hamburg Airport,53.63040161,9.988229752,53,EU,DE,DE-HH,Hamburg,yes,EDDH,HAM,,https://www.hamburg-airport.de/en/,http://en.wikipedia.org/wiki/Hamburg_Airport,
2216,EDDK,large_airport,Cologne Bonn Airport,50.86589813,7.142739773,302,EU,DE,DE-NW,Cologne,yes,EDDK,CGN,,http://www.koeln-bonn-airport.de/en/,http://en.wikipedia.org/wiki/Cologne_Bonn_Airport,Köln
2217,EDDL,large_airport,Düsseldorf Airport,51.289501,6.76678,147,EU,DE,DE-NW,Düsseldorf,yes,EDDL,DUS,,http://www.dus.com/dus_en/,http://en.wikipedia.org/wiki/D%C3%BCsseldorf_Airport,
2218,EDDM,large_airport,Munich Airport,48.353802,11.7861,1487,EU,DE,DE-BY,Munich,yes,EDDM,MUC,,http://www.munich-airport.com/,http://en.wikipedia.org/wiki/Munich_International_Airport,"Franz Josef Strauss Airport, Flughafen München Franz Josef Strauß"
2219,EDDN,large_airport,Nuremberg Airport,49.498699,11.078056,1046,EU,DE,DE-BY,Nuremberg,yes,EDDN,NUE,,https://www.airport-nuernberg.de/english,http://en.wikipedia.org/wiki/Nuremberg_Airport,Nürnberg
2220,EDDP,large_airport,Leipzig/Halle Airport,51.423889,12.236389,465,EU,DE,DE-SN,Leipzig,yes,EDDP,LEJ,,http://www.leipzig-halle-airport.de/en/index.html,http://en.wikipedia.org/wiki/Leipzig/Halle_Airport,Schkeuditz Airport
2222,EDDS,large_airport,Stuttgart Airport,48.68989944,9.221960068,1276,EU,DE,DE-BW,Stuttgart,yes,EDDS,STR,,http://www.flughafen-stuttgart.de/,http://en.wikipedia.org/wiki/Stuttgart_Airport,
2223,EDDT,large_airport,Berlin-Tegel Airport,52.5597,13.2877,122,EU,DE,DE-BE,Berlin,yes,EDDT,TXL,,http://www.berlin-airport.de/en/travellers-txl/index.php,http://en.wikipedia.org/wiki/Berlin-Tegel_International_Airport,"BER, Otto Lilienthal"
2224,EDDV,large_airport,Hannover Airport,52.46110153,9.685079575,183,EU,DE,DE-NI,Hannover,yes,EDDV,HAJ,,,http://en.wikipedia.org/wiki/Hanover/Langenhagen_International_Airport,
2225,EDDW,large_airport,Bremen Airport,53.04750061,8.786669731,14,EU,DE,DE-HB,Bremen,yes,EDDW,BRE,,,http://en.wikipedia.org/wiki/Bremen_Airport,
2247,EDLW,large_airport,Dortmund Airport,51.5182991,7.612239838,425,EU,DE,DE-NW,Dortmund,yes,EDLW,DTM,,,http://en.wikipedia.org/wiki/Dortmund_Airport,
2270,EDSB,large_airport,Karlsruhe Baden-Baden Airport,48.77939987,8.080499649,408,EU,DE,DE-BW,Baden-Baden,yes,EDSB,FKB,,http://www.baden-airpark.de/startseite.html,http://en.wikipedia.org/wiki/Baden_Airpark,Baden Airpark
2301,EETN,large_airport,Lennart Meri Tallinn Airport,59.41329956,24.83279991,131,EU,EE,EE-37,Tallinn,yes,EETN,TLL,,http://www.tallinn-airport.ee/eng,http://en.wikipedia.org/wiki/Tallinn_Airport,
2307,EFHK,large_airport,Helsinki Vantaa Airport,60.31719971,24.9633007,179,EU,FI,FI-ES,Helsinki,yes,EFHK,HEL,,http://www.finavia.fi/en/helsinki-airport,http://en.wikipedia.org/wiki/Helsinki-Vantaa_Airport,
2385,EGAA,large_airport,Belfast International Airport,54.65750122,-6.215829849,268,EU,GB,GB-NIR,Belfast,yes,EGAA,BFS,,http://www.belfastairport.com/,http://en.wikipedia.org/wiki/Belfast_International_Airport,"Aldergrove, RAF Aldergrove"
2387,EGAC,large_airport,George Best Belfast City Airport,54.61809921,-5.872499943,15,EU,GB,GB-NIR,Belfast,yes,EGAC,BHD,,http://www.belfastcityairport.com/,http://en.wikipedia.org/wiki/George_Best_Belfast_City_Airport,
2389,EGBB,large_airport,Birmingham International Airport,52.45389938,-1.748029947,327,EU,GB,GB-ENG,Birmingham,yes,EGBB,BHX,,http://www.bhx.co.uk/,http://en.wikipedia.org/wiki/Birmingham_International_Airport_(United_Kingdom),
2398,EGCC,large_airport,Manchester Airport,53.35369873,-2.274950027,257,EU,GB,GB-ENG,Manchester,yes,EGCC,MAN,,http://www.manchesterairport.co.uk/,http://en.wikipedia.org/wiki/Manchester_Airport,"Ringway Airport, RAF Ringway"
2401,EGCN,large_airport,Robin Hood Doncaster Sheffield Airport,53.48053781,-1.010656357,55,EU,GB,GB-ENG,Doncaster,yes,EGCN,DSA,,http://www.robinhoodairport.com/,http://en.wikipedia.org/wiki/Robin_Hood_Airport_Doncaster_Sheffield,RAF Finningley
2415,EGFF,large_airport,Cardiff International Airport,51.39670181,-3.343329906,220,EU,GB,GB-WLS,Cardiff,yes,EGFF,CWL,,http://www.cwlfly.com/,http://en.wikipedia.org/wiki/Cardiff_International_Airport,Rhoose
2417,EGGD,large_airport,Bristol Airport,51.382702,-2.71909,622,EU,GB,GB-ENG,Bristol,yes,EGGD,BRS,,http://www.bristolairport.co.uk/,http://en.wikipedia.org/wiki/Bristol_International_Airport,Lulsgate Bottom
2418,EGGP,large_airport,Liverpool John Lennon Airport,53.33359909,-2.849720001,80,EU,GB,GB-ENG,Liverpool,yes,EGGP,LPL,,http://www.liverpoolairport.com/,http://en.wikipedia.org/wiki/Liverpool_John_Lennon_Airport,
2419,EGGW,large_airport,London Luton Airport,51.87469864,-0.368333012,526,EU,GB,GB-ENG,London,yes,EGGW,LTN,,http://www.london-luton.co.uk/en/,http://en.wikipedia.org/wiki/London_Luton_Airport,LON
2421,EGHH,large_airport,Bournemouth Airport,50.77999878,-1.842499971,38,EU,GB,GB-ENG,Bournemouth,yes,EGHH,BOH,,http://www.bournemouthairport.com/,http://en.wikipedia.org/wiki/Bournemouth_Airport,RAF Hurn
2422,EGHI,large_airport,Southampton Airport,50.95029831,-1.35679996,44,EU,GB,GB-ENG,Southampton,yes,EGHI,SOU,,http://www.southamptonairport.com/,http://en.wikipedia.org/wiki/Southampton_Airport,"RAF Eastleigh, RAF Southampton"
2429,EGKK,large_airport,London Gatwick Airport,51.14810181,-0.190277994,202,EU,GB,GB-ENG,London,yes,EGKK,LGW,,http://www.gatwickairport.com/,http://en.wikipedia.org/wiki/London_Gatwick_Airport,"LON, Crawley, Charlwood"
2434,EGLL,large_airport,London Heathrow Airport,51.4706,-0.461941,83,EU,GB,GB-ENG,London,yes,EGLL,LHR,,http://www.heathrowairport.com/,http://en.wikipedia.org/wiki/London_Heathrow_Airport,"LON, Londres"
2444,EGNM,large_airport,Leeds Bradford Airport,53.86589813,-1.660570025,681,EU,GB,GB-ENG,Leeds,yes,EGNM,LBA,,http://www.lbia.co.uk/,http://en.wikipedia.org/wiki/Leeds_Bradford_International_Airport,
2448,EGNT,large_airport,Newcastle Airport,55.03749847,-1.691669941,266,EU,GB,GB-ENG,Newcastle,yes,EGNT,NCL,,http://www.newcastleairport.com/,http://en.wikipedia.org/wiki/Newcastle_Airport,
2450,EGNX,large_airport,East Midlands Airport,52.83110046,-1.328060031,306,EU,GB,GB-ENG,Nottingham,yes,EGNX,EMA,,http://www.eastmidlandsairport.com/,http://en.wikipedia.org/wiki/East_Midlands_Airport,RAF Castle Donington
2459,EGPD,large_airport,Aberdeen Dyce Airport,57.20190048,-2.197779894,215,EU,GB,GB-SCT,Aberdeen,yes,EGPD,ABZ,,http://www.aberdeenairport.com/,http://en.wikipedia.org/wiki/Aberdeen_Airport,
2461,EGPF,large_airport,Glasgow International Airport,55.87189865,-4.433060169,26,EU,GB,GB-SCT,Glasgow,yes,EGPF,GLA,,http://www.glasgowairport.com/,http://en.wikipedia.org/wiki/Glasgow_International_Airport,"Port-adhair Eadar-nàiseanta Ghlaschu, RAF Abbotsinch, RAF Ayr"
2462,EGPH,large_airport,Edinburgh Airport,55.95000076,-3.372499943,135,EU,GB,GB-SCT,Edinburgh,yes,EGPH,EDI,,http://www.edinburghairport.com/,http://en.wikipedia.org/wiki/Edinburgh_Airport,
2475,EGSH,large_airport,Norwich International Airport,52.67580032,1.282780051,117,EU,GB,GB-ENG,Norwich,yes,EGSH,NWI,,http://www.norwichairport.co.uk/,http://en.wikipedia.org/wiki/Norwich_International_Airport,RAF Horsham St Faith
2476,EGSS,large_airport,London Stansted Airport,51.88499832,0.234999999,348,EU,GB,GB-ENG,London,yes,EGSS,STN,,http://www.stanstedairport.com/,http://en.wikipedia.org/wiki/London_Stansted_Airport,LON
2481,EGTE,large_airport,Exeter International Airport,50.7344017,-3.413889885,102,EU,GB,GB-ENG,Exeter,yes,EGTE,EXT,,http://www.exeter-airport.co.uk/,http://en.wikipedia.org/wiki/Exeter_International_Airport,
2487,EGUL,large_airport,RAF Lakenheath,52.40930176,0.56099999,32,EU,GB,GB-ENG,Lakenheath,no,EGUL,LKZ,,http://www.lakenheath.af.mil/,http://en.wikipedia.org/wiki/RAF_Lakenheath,
2488,EGUN,large_airport,RAF Mildenhall,52.36190033,0.486405998,33,EU,GB,GB-ENG,Mildenhall,no,EGUN,MHZ,,http://www.mildenhall.af.mil/,http://en.wikipedia.org/wiki/RAF_Mildenhall,
2492,EGVA,large_airport,RAF Fairford,51.68220139,-1.790030003,286,EU,GB,GB-ENG,Fairford,no,EGVA,FFD,,,http://en.wikipedia.org/wiki/RAF_Fairford,
2493,EGVN,large_airport,RAF Brize Norton,51.75,-1.58362,288,EU,GB,GB-ENG,Brize Norton,yes,EGVN,BZZ,,http://www.raf.mod.uk/rafbrizenorton/passengers/,http://en.wikipedia.org/wiki/RAF_Brize_Norton,Royal Air Force
2513,EHAM,large_airport,Amsterdam Airport Schiphol,52.30860138,4.76388979,-11,EU,NL,NL-NH,Amsterdam,yes,EHAM,AMS,,http://www.schiphol.nl/,http://en.wikipedia.org/wiki/Amsterdam_Schiphol_Airport,
2515,EHBK,large_airport,Maastricht Aachen Airport,50.9117012,5.770140171,375,EU,NL,NL-LI,Maastricht,yes,EHBK,MST,,,http://en.wikipedia.org/wiki/Maastricht_Aachen_Airport,
2518,EHEH,large_airport,Eindhoven Airport,51.45009995,5.374529839,74,EU,NL,NL-NB,Eindhoven,yes,EHEH,EIN,,http://www.eindhovenairport.nl/,http://en.wikipedia.org/wiki/Eindhoven_Airport,Welschap Airport
2530,EICK,large_airport,Cork Airport,51.84130096,-8.491109848,502,EU,IE,IE-C,Cork,yes,EICK,ORK,,http://www.corkairport.com/,http://en.wikipedia.org/wiki/Cork_Airport,Aerfort Chorcaí
2533,EIDW,large_airport,Dublin Airport,53.42129898,-6.270070076,242,EU,IE,IE-D,Dublin,yes,EIDW,DUB,,http://www.dublinairport.com/,http://en.wikipedia.org/wiki/Dublin_Airport,Aerfort Bhaile Átha Cliath
2537,EINN,large_airport,Shannon Airport,52.70199966,-8.924819946,46,EU,IE,IE-CE,Limerick,yes,EINN,SNN,,http://www.shannonairport.com/,http://en.wikipedia.org/wiki/Shannon_Airport,
2541,EKBI,large_airport,Billund Airport,55.74029922,9.151780128,247,EU,DK,DK-83,Billund,yes,EKBI,BLL,,http://www.billund-airport.dk/?sc_lang=en,http://en.wikipedia.org/wiki/Billund_Airport,
2542,EKCH,large_airport,Copenhagen Kastrup Airport,55.61790085,12.65600014,17,EU,DK,DK-84,Copenhagen,yes,EKCH,CPH,,http://www.cph.dk/en/,http://en.wikipedia.org/wiki/Copenhagen_Airport,"København, Malmö"
2562,EKYT,large_airport,Aalborg Airport,57.09275891,9.849243164,10,EU,DK,DK-81,Aalborg,yes,EKYT,AAL,,http://www.aal.dk,http://en.wikipedia.org/wiki/Aalborg_Airport,
2563,ELLX,large_airport,Luxembourg-Findel International Airport,49.6233333,6.2044444,1234,EU,LU,LU-L,Luxembourg,yes,ELLX,LUX,,http://www.lux-airport.lu/en/,http://en.wikipedia.org/wiki/Luxembourg-Findel_International_Airport,
2569,ENBO,large_airport,Bodø Airport,67.26920319,14.36530018,42,EU,NO,NO-18,Bodø,yes,ENBO,BOO,,http://www.avinor.no/en/airport/bodo/frontpage,http://en.wikipedia.org/wiki/Bod%C3%B8_Airport,"Bodø Air Force Base, Bodø Main Air Station"
2570,ENBR,large_airport,Bergen Airport Flesland,60.29339981,5.218140125,170,EU,NO,NO-12,Bergen,yes,ENBR,BGO,,http://www.avinor.no/en/airport/bergen,http://en.wikipedia.org/wiki/Bergen_Airport%2C_Flesland,
2578,ENGM,large_airport,Oslo Gardermoen Airport,60.19390106,11.10039997,681,EU,NO,NO-02,Oslo,yes,ENGM,OSL,,https://avinor.no/en/airport/oslo-airport,"https://en.wikipedia.org/wiki/Oslo_Airport,_Gardermoen",
2599,ENTC,large_airport,Tromsø Airport,69.6832962,18.91889954,31,EU,NO,NO-19,Tromsø,yes,ENTC,TOS,,http://www.avinor.no/en/airport/tromso,http://en.wikipedia.org/wiki/Troms%C3%B8_Airport,"Langnes, Tromsøya, Tromso"
2601,ENVA,large_airport,Trondheim Airport Værnes,63.4578018,10.9239998,56,EU,NO,NO-17,Trondheim,yes,ENVA,TRD,,https://avinor.no/en/airport/trondheim-airport/,http://en.wikipedia.org/wiki/Trondheim_Airport%2C_V%C3%A6rnes,
2602,ENZV,large_airport,Stavanger Airport Sola,58.87670135,5.63778019,29,EU,NO,NO-11,Stavanger,yes,ENZV,SVG,,http://www.avinor.no/en/airport/stavanger/,"http://en.wikipedia.org/wiki/Stavanger_Airport,_Sola","Sola Air Station, Stavanger lufthavn, Sola"
2608,EPGD,large_airport,Gdańsk Lech Wałęsa Airport,54.37760162,18.46619987,489,EU,PL,PL-PM,Gdańsk,yes,EPGD,GDN,,http://www.airport.gdansk.pl/,http://en.wikipedia.org/wiki/Gda%C5%84sk_Lech_Wa%C5%82%C4%99sa_Airport,Gdańsk-Rębiechowo
2609,EPKK,large_airport,John Paul II International Airport Kraków-Balice Airport,50.07770157,19.78479958,791,EU,PL,PL-MA,Kraków,yes,EPKK,KRK,,http://lotnisko-balice.pl/en.html,http://en.wikipedia.org/wiki/John_Paul_II_International_Airport_Krak%C3%B3w-Balice,Krakov
2613,EPKT,large_airport,Katowice International Airport,50.4743,19.08,995,EU,PL,PL-SL,Katowice,yes,EPKT,KTW,,http://katowice.airport.com,http://en.wikipedia.org/wiki/Katowice_International_Airport,"Pyrzowice, Dąbrowa Górnicza, Katowice, Silesia, GOP, Silesia Metropolis, Gliwice, Piekary Śląskie, Bytom, Zabrze, Sosnowiec"
2622,EPMO,large_airport,Modlin Airport,52.4510994,20.65180016,341,EU,PL,PL-MZ,Warsaw,yes,EPMO,WMI,,http://modlinairport.pl/,http://en.wikipedia.org/wiki/Warsaw%E2%80%93Modlin_Mazovia_Airport,Nowy Dwor Mazowiecki
2625,EPPO,large_airport,Poznań-Ławica Airport,52.42100143,16.82629967,308,EU,PL,PL-WP,Poznań,yes,EPPO,POZ,,http://www.airport-poznan.com.pl/en/,http://en.wikipedia.org/wiki/Pozna%C5%84-%C5%81awica_Airport,
2637,EPWA,large_airport,Warsaw Chopin Airport,52.16569901,20.96710014,362,EU,PL,PL-MZ,Warsaw,yes,EPWA,WAW,,http://www.lotnisko-chopina.pl/?lang=en,http://en.wikipedia.org/wiki/Warsaw_Frederic_Chopin_Airport,Okęcie
2638,EPWR,large_airport,Copernicus Wrocław Airport,51.10269928,16.88579941,404,EU,PL,PL-DS,Wrocław,yes,EPWR,WRO,,http://www.airport.wroclaw.pl/en/index.php,http://en.wikipedia.org/wiki/Copernicus_Airport_Wroc%C5%82aw,"Strachowice, Breslau"
2648,ESGG,large_airport,Gothenburg-Landvetter Airport,57.66279984,12.27980042,506,EU,SE,SE-Q,Gothenburg,yes,ESGG,GOT,,https://www.swedavia.com/landvetter/,http://en.wikipedia.org/wiki/Gothenburg-Landvetter_Airport,Göteborg-Landvetter
2669,ESMS,large_airport,Malmö Sturup Airport,55.53630536,13.37619781,236,EU,SE,SE-M,Malmö,yes,ESMS,MMX,,http://www.swedavia.com/malmo/,http://en.wikipedia.org/wiki/Malm%C3%B6_Airport,
2697,ESPA,large_airport,Luleå Airport,65.54380035,22.12199974,65,EU,SE,SE-BD,Luleå,yes,ESPA,LLA,,https://www.swedavia.com/lulea/,http://en.wikipedia.org/wiki/Lule%C3%A5_Airport,Kallax Air Base
2701,ESSA,large_airport,Stockholm-Arlanda Airport,59.65190125,17.91860008,137,EU,SE,SE-AB,Stockholm,yes,ESSA,ARN,,http://www.swedavia.se/arlanda/,http://en.wikipedia.org/wiki/Stockholm-Arlanda_Airport,
2718,ETAR,large_airport,Ramstein Air Base,49.43690109,7.600279808,776,EU,DE,DE-RP,Ramstein,no,ETAR,RMS,,http://www.ramstein.af.mil/,http://en.wikipedia.org/wiki/Ramstein_Air_Base,Landstuhl Air Base
2758,EVRA,large_airport,Riga International Airport,56.92359924,23.97109985,36,EU,LV,LV-RIX,Riga,yes,EVRA,RIX,,http://www.riga-airport.com/,http://en.wikipedia.org/wiki/Riga_International_Airport,
2766,EYVI,large_airport,Vilnius International Airport,54.634102,25.285801,648,EU,LT,LT-VL,Vilnius,yes,EYVI,VNO,,http://www.vilnius-airport.lt/en/,http://en.wikipedia.org/wiki/Vilnius_International_Airport,
2775,FACT,large_airport,Cape Town International Airport,-33.96480179,18.60169983,151,AF,ZA,ZA-WC,Cape Town,yes,FACT,CPT,,http://www.airports.co.za/home.asp?pid=229,http://en.wikipedia.org/wiki/Cape_Town_International_Airport,"Kaapstad Internasionale Lughawe, CTIA, DF Malan Airport"
2783,FAGG,large_airport,George Airport,-34.00559998,22.37890053,648,AF,ZA,ZA-WC,George,yes,FAGG,GRJ,,,http://en.wikipedia.org/wiki/George_Airport,
2792,FAJS,large_airport,OR Tambo International Airport,-26.1392,28.246,5558,AF,ZA,ZA-GT,Johannesburg,yes,FAOR,JNB,FAOR,http://www.acsa.co.za/home.asp?pid=228,http://en.wikipedia.org/wiki/OR_Tambo_International_Airport,Johannesburg International Airport
300795,FALE,large_airport,King Shaka International Airport,-29.61444444,31.11972222,295,AF,ZA,ZA-NL,Durban,yes,FALE,DUR,,,http://en.wikipedia.org/wiki/King_Shaka_International_Airport,La Mercy Airport
2879,FIMR,large_airport,Sir Charles Gaetan Duval Airport,-19.7577,63.361,95,AF,MU,MU-VP,Port Mathurin,yes,FIMR,RRG,,,http://en.wikipedia.org/wiki/Rodrigues_Island_Airport,Plaine Corail
2894,FLLS,large_airport,Kenneth Kaunda International Airport Lusaka,-15.33080006,28.45260048,3779,AF,ZM,ZM-09,Lusaka,yes,FLKK,LUN,,http://www.nacl.co.zm/?page_id=336,http://en.wikipedia.org/wiki/Lusaka_International_Airport,
320984,GB-0458,large_airport,[Duplicate] Pic,55.505694,-4.586792,,EU,GB,GB-SCT,Prestwick,no,,,,,,
324610,GB-0518,large_airport,Edinburgh Airport,0,0,,EU,GB,GB-SCT,,yes,,,,,,
324611,GB-0519,large_airport,Glasgow Airport,0,0,,EU,GB,GB-SCT,,no,,,,,,
324613,GB-0520,large_airport,Birmingham Airport,0,0,,EU,GB,GB-ENG,,yes,,,,,,
324614,GB-0521,large_airport,Manchester Airport,0,0,,EU,GB,GB-ENG,,no,,,,,,
3081,GCLP,large_airport,Gran Canaria Airport,27.93190002,-15.38659954,78,EU,ES,ES-CN,Gran Canaria Island,yes,GCLP,LPA,,http://www.aena.es/csee/Satellite?pagename=subHome&Language=EN_GB&c=Page&SiteName=LPA&cid=1048858940184,http://en.wikipedia.org/wiki/Gran_Canaria_Airport,"Canary Islands, Las Palmas Airport, Gando Airport"
3083,GCTS,large_airport,Tenerife South Airport,28.04450035,-16.57250023,209,EU,ES,ES-CN,Tenerife Island,yes,GCTS,TFS,,,http://en.wikipedia.org/wiki/Tenerife_South_Airport,"Canary Islands, Reina Sofía, TCI"
3084,GCXO,large_airport,Tenerife Norte Airport,28.48270035,-16.34149933,2076,EU,ES,ES-CN,Tenerife Island,yes,GCXO,TFN,,,http://en.wikipedia.org/wiki/Los_Rodeos_Airport,"Canary Islands, Los Rodeos, TCI"
3113,GMMN,large_airport,Mohammed V International Airport,33.36750031,-7.589970112,656,AF,MA,MA-CAS,Casablanca,yes,GMMN,CMN,,http://www.onda.ma/ONDA/Fr/Espaces/EspacePassagers/LeReseauAeroportuaireONDA/Lesaeroports/Fiches+d%E2%80%99identit%C3%A9+par+a%C,http://en.wikipedia.org/wiki/Mohammed_V_International_Airport,"CAS, Casabianca, Nouasseur"
3125,GOOY,large_airport,Léopold Sédar Senghor International Airport,14.73970032,-17.49020004,85,AF,SN,SN-DK,Dakar,yes,GOOY,DKR,,http://www.aeroportdakar.com/,http://en.wikipedia.org/wiki/Dakar-Yoff-L%C3%A9opold_S%C3%A9dar_Senghor_International_Airport,
323315,GQNO,large_airport,Nouakchott–Oumtounsy International Airport,18.31,-15.9697222,9,AF,MR,MR-NKC,Nouakchott,yes,GQNO,NKC,,,https://en.wikipedia.org/wiki/Nouakchott%E2%80%93Oumtounsy_International_Airport,"Nouakchott,Oumtounsy"
3157,HAAB,large_airport,Addis Ababa Bole International Airport,8.977890015,38.79930115,7630,AF,ET,ET-AA,Addis Ababa,yes,HAAB,ADD,,http://www.ethiopianairports.com,http://en.wikipedia.org/wiki/Bole_International_Airport,"Haile Selassie I, Bole International Airport"
3183,HECA,large_airport,Cairo International Airport,30.12190056,31.40559959,382,AF,EG,EG-C,Cairo,yes,HECA,CAI,,,http://en.wikipedia.org/wiki/Cairo_International_Airport,
3186,HEGN,large_airport,Hurghada International Airport,27.17830086,33.79940033,52,AF,EG,EG-BA,Hurghada,yes,HEGN,HRG,,,http://en.wikipedia.org/wiki/Hurghada_International_Airport,"Al Ghardaqah, الغردقة"
3191,HELX,large_airport,Luxor International Airport,25.671,32.7066,294,AF,EG,EG-KN,Luxor,yes,HELX,LXR,,,http://en.wikipedia.org/wiki/Luxor_International_Airport,
3206,HKJK,large_airport,Jomo Kenyatta International Airport,-1.319239974,36.92779922,5330,AF,KE,KE-110,Nairobi,yes,HKJK,NBO,,http://www.kenyaairports.com/jkia/IndexJkia.php,http://en.wikipedia.org/wiki/Jomo_Kenyatta_International_Airport,"Jkia Airport, Embakasi Airport, Nairobi International Airport"
3213,HKMO,large_airport,Mombasa Moi International Airport,-4.034830093,39.59420013,200,AF,KE,KE-300,Mombasa,yes,HKMO,MBA,,http://www.kenyaairports.co.ke/kaa/airports/moi/,http://en.wikipedia.org/wiki/Moi_International_Airport,
3227,HLLT,large_airport,Tripoli International Airport,32.66350174,13.1590004,263,AF,LY,LY-TB,Tripoli,yes,HLLT,TIP,,,http://en.wikipedia.org/wiki/Tripoli_International_Airport,
3247,HSSJ,large_airport,Juba International Airport,4.872010231,31.60110092,1513,AF,SS,SS-17,Juba,yes,HSSJ,JUB,,,http://en.wikipedia.org/wiki/Juba_Airport,JIA
3249,HSSS,large_airport,Khartoum International Airport,15.58950043,32.55319977,1265,AF,SD,SD-03,Khartoum,yes,HSSS,KRT,,,http://en.wikipedia.org/wiki/Khartoum_International_Airport,
3251,HTDA,large_airport,Julius Nyerere International Airport,-6.87811,39.202599,182,AF,TZ,TZ-02,Dar es Salaam,yes,HTDA,DAR,,http://www.tanzaniairports.com/,http://en.wikipedia.org/wiki/Julius_Nyerere_International_Airport,"HTJN, Mwalimu Julius K. Nyerere, Dar es Salaam International Airport"
309298,ID-0017,large_airport,Sungai Siring International Airport,-0.373611,117.255556,82,AS,ID,ID-KI,Samarinda,yes,,,,http://www.proyek.dishubprovkaltim.info/?pro=1,http://en.wikipedia.org/wiki/Samarinda_International_Airport,"Sungai Siring Airport, فرودگاه سیرینگ"
16091,KABQ,large_airport,Albuquerque International Sunport Airport,35.040199,-106.609001,5355,NA,US,US-NM,Albuquerque,yes,KABQ,ABQ,ABQ,http://www.abqsunport.com/,http://en.wikipedia.org/wiki/Albuquerque_International_Sunport,
3364,KADW,large_airport,Andrews Air Force Base,38.810799,-76.866997,280,NA,US,US-MD,Camp Springs,no,KADW,ADW,ADW,http://www.jba.af.mil/,http://en.wikipedia.org/wiki/Joint_Base_Andrews,
3366,KAFW,large_airport,Fort Worth Alliance Airport,32.98759842,-97.31880188,722,NA,US,US-TX,Fort Worth,no,KAFW,AFW,AFW,http://www.allianceairport.com/,http://en.wikipedia.org/wiki/Fort_Worth_Alliance_Airport,
3368,KAGS,large_airport,Augusta Regional At Bush Field,33.36989975,-81.96450043,144,NA,US,US-GA,Augusta,yes,KAGS,AGS,AGS,,http://en.wikipedia.org/wiki/Augusta_Regional_Airport,
3377,KAMA,large_airport,Rick Husband Amarillo International Airport,35.219398,-101.706001,3607,NA,US,US-TX,Amarillo,yes,KAMA,AMA,AMA,http://airport.amarillo.gov/,http://en.wikipedia.org/wiki/Rick_Husband_Amarillo_International_Airport,
3384,KATL,large_airport,Hartsfield Jackson Atlanta International Airport,33.63669968,-84.42810059,1026,NA,US,US-GA,Atlanta,yes,KATL,ATL,ATL,http://www.atlanta-airport.com/,http://en.wikipedia.org/wiki/Hartsfield-Jackson_Atlanta_International_Airport,
3386,KAUS,large_airport,Austin Bergstrom International Airport,30.19449997,-97.66989899,542,NA,US,US-TX,Austin,yes,KAUS,AUS,AUS,http://www.ci.austin.tx.us/austinairport/,http://en.wikipedia.org/wiki/Austin-Bergstrom_International_Airport,
3387,KAVL,large_airport,Asheville Regional Airport,35.43619919,-82.54180145,2165,NA,US,US-NC,Asheville,yes,KAVL,AVL,AVL,,http://en.wikipedia.org/wiki/Asheville_Regional_Airport,
3391,KBAB,large_airport,Beale Air Force Base,39.13610077,-121.4369965,113,NA,US,US-CA,Marysville,no,KBAB,BAB,BAB,,http://en.wikipedia.org/wiki/Beale_Air_Force_Base,
3392,KBAD,large_airport,Barksdale Air Force Base,32.50180054,-93.66269684,166,NA,US,US-LA,Bossier City,no,KBAD,BAD,BAD,,http://en.wikipedia.org/wiki/Barksdale_Air_Force_Base,
3396,KBDL,large_airport,Bradley International Airport,41.93889999,-72.68319702,173,NA,US,US-CT,Hartford,yes,KBDL,BDL,BDL,http://www.bradleyairport.com/,http://en.wikipedia.org/wiki/Bradley_International_Airport,"HFD, Hartford"
3401,KBFI,large_airport,Boeing Field King County International Airport,47.52999878,-122.302002,21,NA,US,US-WA,Seattle,yes,KBFI,BFI,BFI,,http://en.wikipedia.org/wiki/Boeing_Field,
3405,KBGR,large_airport,Bangor International Airport,44.80739975,-68.82810211,192,NA,US,US-ME,Bangor,yes,KBGR,BGR,BGR,,http://en.wikipedia.org/wiki/Bangor_International_Airport,
3406,KBHM,large_airport,Birmingham-Shuttlesworth International Airport,33.56290054,-86.75350189,650,NA,US,US-AL,Birmingham,yes,KBHM,BHM,BHM,http://www.flybirmingham.com/,http://en.wikipedia.org/wiki/Birmingham_International_Airport_(US),
3408,KBIL,large_airport,Billings Logan International Airport,45.80770111,-108.5429993,3652,NA,US,US-MT,Billings,yes,KBIL,BIL,BIL,,http://en.wikipedia.org/wiki/Billings_Logan_International_Airport,
3417,KBLV,large_airport,Scott AFB/Midamerica Airport,38.5452,-89.835197,459,NA,US,US-IL,Belleville,yes,KBLV,BLV,BLV,,http://en.wikipedia.org/wiki/Scott_Air_Force_Base,Scott Air Force Base
3419,KBMI,large_airport,Central Illinois Regional Airport at Bloomington-Normal,40.47710037,-88.91590118,871,NA,US,US-IL,Bloomington/Normal,yes,KBMI,BMI,BMI,,http://en.wikipedia.org/wiki/Central_Illinois_Regional_Airport,
3420,KBNA,large_airport,Nashville International Airport,36.12450027,-86.67819977,599,NA,US,US-TN,Nashville,yes,KBNA,BNA,BNA,,http://en.wikipedia.org/wiki/Nashville_International_Airport,
3421,KBOI,large_airport,Boise Air Terminal/Gowen field,43.56439972,-116.2229996,2871,NA,US,US-ID,Boise,yes,KBOI,BOI,BOI,http://www.cityofboise.org/departments/airport/,http://en.wikipedia.org/wiki/Boise_Airport,"Boise Air Terminal, Gowen Field"
3422,KBOS,large_airport,General Edward Lawrence Logan International Airport,42.36429977,-71.00520325,20,NA,US,US-MA,Boston,yes,KBOS,BOS,BOS,http://www.massport.com/logan/,http://en.wikipedia.org/wiki/Logan_International_Airport,General Edward Lawrence Logan International Airport
3429,KBTR,large_airport,"Baton Rouge Metropolitan, Ryan Field",30.53319931,-91.14959717,70,NA,US,US-LA,Baton Rouge,yes,KBTR,BTR,BTR,,http://en.wikipedia.org/wiki/Baton_Rouge_Metropolitan_Airport,
3431,KBUF,large_airport,Buffalo Niagara International Airport,42.94049835,-78.73220062,728,NA,US,US-NY,Buffalo,yes,KBUF,BUF,BUF,,http://en.wikipedia.org/wiki/Buffalo_Niagara_International_Airport,
3435,KBWI,large_airport,Baltimore/Washington International Thurgood Marshall Airport,39.17539978,-76.66829681,146,NA,US,US-MD,Baltimore,yes,KBWI,BWI,BWI,,http://en.wikipedia.org/wiki/Baltimore-Washington_International_Thurgood_Marshall_Airport,WAS
3438,KCAE,large_airport,Columbia Metropolitan Airport,33.93880081,-81.11949921,236,NA,US,US-SC,Columbia,yes,KCAE,CAE,CAE,,http://en.wikipedia.org/wiki/Columbia_Metropolitan_Airport,
3441,KCBM,large_airport,Columbus Air Force Base,33.64379883,-88.44380188,219,NA,US,US-MS,Columbus,no,KCBM,CBM,CBM,,http://en.wikipedia.org/wiki/Columbus_Air_Force_Base,
3448,KCHA,large_airport,Lovell Field,35.03530121,-85.20379639,683,NA,US,US-TN,Chattanooga,yes,KCHA,CHA,CHA,,http://en.wikipedia.org/wiki/Chattanooga_Metropolitan_Airport,
3450,KCHS,large_airport,Charleston Air Force Base-International Airport,32.89860153,-80.04049683,46,NA,US,US-SC,Charleston,yes,KCHS,CHS,CHS,,http://en.wikipedia.org/wiki/Charleston_International_Airport,Charleston Air Force Base
3451,KCID,large_airport,The Eastern Iowa Airport,41.88470078,-91.71080017,869,NA,US,US-IA,Cedar Rapids,yes,KCID,CID,CID,,http://en.wikipedia.org/wiki/The_Eastern_Iowa_Airport,
3454,KCLE,large_airport,Cleveland Hopkins International Airport,41.4117012,-81.84980011,791,NA,US,US-OH,Cleveland,yes,KCLE,CLE,CLE,http://www.clevelandairport.com/,http://en.wikipedia.org/wiki/Cleveland_Hopkins_International_Airport,
3457,KCLT,large_airport,Charlotte Douglas International Airport,35.2140007,-80.94309998,748,NA,US,US-NC,Charlotte,yes,KCLT,CLT,CLT,http://www.charlotteairport.com/,http://en.wikipedia.org/wiki/Charlotte/Douglas_International_Airport,
3458,KCMH,large_airport,Port Columbus International Airport,39.9980011,-82.89189911,815,NA,US,US-OH,Columbus,yes,KCMH,CMH,CMH,,http://en.wikipedia.org/wiki/Port_Columbus_International_Airport,
3463,KCOS,large_airport,City of Colorado Springs Municipal Airport,38.80580139,-104.7009964,6187,NA,US,US-CO,Colorado Springs,yes,KCOS,COS,COS,https://flycos.coloradosprings.gov/,http://en.wikipedia.org/wiki/Colorado_Springs_Airport,
3465,KCPR,large_airport,Casper-Natrona County International Airport,42.90800095,-106.4639969,5350,NA,US,US-WY,Casper,yes,KCPR,CPR,CPR,,http://en.wikipedia.org/wiki/Natrona_County_International_Airport,
3466,KCRP,large_airport,Corpus Christi International Airport,27.77039909,-97.50119781,44,NA,US,US-TX,Corpus Christi,yes,KCRP,CRP,CRP,,http://en.wikipedia.org/wiki/Corpus_Christi_International_Airport,
3467,KCRW,large_airport,Yeager Airport,38.37310028,-81.59320068,981,NA,US,US-WV,Charleston,yes,KCRW,CRW,CRW,,http://en.wikipedia.org/wiki/Yeager_Airport,
3471,KCVG,large_airport,Cincinnati Northern Kentucky International Airport,39.04880142,-84.6678009,896,NA,US,US-KY,Cincinnati,yes,KCVG,CVG,CVG,,http://en.wikipedia.org/wiki/Cincinnati/Northern_Kentucky_International_Airport,
3473,KCVS,large_airport,Cannon Air Force Base,34.38280106,-103.3219986,4295,NA,US,US-NM,Clovis,no,KCVS,CVS,CVS,http://www.cannon.af.mil/,http://en.wikipedia.org/wiki/Cannon_Air_Force_Base,
3478,KDAB,large_airport,Daytona Beach International Airport,29.179899,-81.058098,34,NA,US,US-FL,Daytona Beach,yes,KDAB,DAB,DAB,,http://en.wikipedia.org/wiki/Daytona_Beach_International_Airport,
3479,KDAL,large_airport,Dallas Love Field,32.847099,-96.851799,487,NA,US,US-TX,Dallas,yes,KDAL,DAL,DAL,http://www.dallas-lovefield.com/,http://en.wikipedia.org/wiki/Dallas_Love_Field,QDF
3481,KDAY,large_airport,James M Cox Dayton International Airport,39.90240097,-84.2193985,1009,NA,US,US-OH,Dayton,yes,KDAY,DAY,DAY,,http://en.wikipedia.org/wiki/Dayton_International_Airport,
3482,KDBQ,large_airport,Dubuque Regional Airport,42.40200043,-90.70950317,1077,NA,US,US-IA,Dubuque,yes,KDBQ,DBQ,DBQ,,http://en.wikipedia.org/wiki/Dubuque_Regional_Airport,
3483,KDCA,large_airport,Ronald Reagan Washington National Airport,38.8521,-77.037697,15,NA,US,US-DC,Washington,yes,KDCA,DCA,DCA,http://www.flyreagan.com/dca/reagan-national-airport,http://en.wikipedia.org/wiki/Ronald_Reagan_Washington_National_Airport,WAS
3486,KDEN,large_airport,Denver International Airport,39.86169815,-104.6729965,5431,NA,US,US-CO,Denver,yes,KDEN,DEN,DEN,http://www.flydenver.com/,http://en.wikipedia.org/wiki/Denver_International_Airport,"DVX, KVDX"
3488,KDFW,large_airport,Dallas Fort Worth International Airport,32.89680099,-97.03800201,607,NA,US,US-TX,Dallas-Fort Worth,yes,KDFW,DFW,DFW,http://www.dfwairport.com/,http://en.wikipedia.org/wiki/Dallas-Fort_Worth_International_Airport,QDF
3490,KDLF,large_airport,Laughlin Air Force Base,29.35950089,-100.7779999,1082,NA,US,US-TX,Del Rio,no,KDLF,DLF,DLF,http://www.laughlin.af.mil/,http://en.wikipedia.org/wiki/Laughlin_Air_Force_Base,
3491,KDLH,large_airport,Duluth International Airport,46.84209824,-92.19360352,1428,NA,US,US-MN,Duluth,yes,KDLH,DLH,DLH,http://www.duluthairport.com/,http://en.wikipedia.org/wiki/Duluth_International_Airport,"LKI, Duluth Air National Guard Base, Lakeside AFB"
3494,KDOV,large_airport,Dover Air Force Base,39.12950134,-75.46600342,24,NA,US,US-DE,Dover,no,KDOV,DOV,DOV,http://www.dover.af.mil/,http://en.wikipedia.org/wiki/Dover_Air_Force_Base,"Municipal Airport - Dover Airdrome, Dover Army Airbase, Dover Army Airfield"
3496,KDSM,large_airport,Des Moines International Airport,41.5340004,-93.6631012,958,NA,US,US-IA,Des Moines,yes,KDSM,DSM,DSM,,http://en.wikipedia.org/wiki/Des_Moines_International_Airport,
3497,KDTW,large_airport,Detroit Metropolitan Wayne County Airport,42.21239853,-83.35340118,645,NA,US,US-MI,Detroit,yes,KDTW,DTW,DTW,http://www.metroairport.com/,http://en.wikipedia.org/wiki/Detroit_Metropolitan_Wayne_County_Airport,"DTT, Detroit Metro Airport"
3499,KDYS,large_airport,Dyess Air Force Base,32.42079926,-99.854599,1789,NA,US,US-TX,Abilene,no,KDYS,DYS,DYS,http://www.dyess.af.mil/,http://en.wikipedia.org/wiki/Dyess_Air_Force_Base,
3503,KEDW,large_airport,Edwards Air Force Base,34.905399,-117.884003,2312,NA,US,US-CA,Edwards,no,KEDW,EDW,EDW,,http://en.wikipedia.org/wiki/Edwards_Air_Force_Base,
3513,KEND,large_airport,Vance Air Force Base,36.33919907,-97.91649628,1307,NA,US,US-OK,Enid,no,KEND,END,END,http://www.vance.af.mil/,http://en.wikipedia.org/wiki/Vance_Air_Force_Base,
3515,KERI,large_airport,Erie International Tom Ridge Field,42.08312701,-80.17386675,732,NA,US,US-PA,Erie,yes,KERI,ERI,ERI,,http://en.wikipedia.org/wiki/Erie_International_Airport,
3521,KEWR,large_airport,Newark Liberty International Airport,40.69250107,-74.16870117,18,NA,US,US-NJ,Newark,yes,KEWR,EWR,EWR,http://www.panynj.gov/CommutingTravel/airports/html/newarkliberty.html,http://en.wikipedia.org/wiki/Newark_Liberty_International_Airport,"Manhattan, New York City, NYC"
3528,KFFO,large_airport,Wright-Patterson Air Force Base,39.8260994,-84.0483017,823,NA,US,US-OH,Dayton,no,KFFO,FFO,FFO,http://www.wpafb.af.mil/,http://en.wikipedia.org/wiki/Wright-Patterson_Air_Force_Base,"Wilbur Wright Field, Fairfield Air Depot"
3531,KFLL,large_airport,Fort Lauderdale Hollywood International Airport,26.07259941,-80.15270233,9,NA,US,US-FL,Fort Lauderdale,yes,KFLL,FLL,FLL,http://www.fll.net/,http://en.wikipedia.org/wiki/Fort_Lauderdale-Hollywood_International_Airport,"MFW, South Florida"
3543,KFSM,large_airport,Fort Smith Regional Airport,35.33660126,-94.36740112,469,NA,US,US-AR,Fort Smith,yes,KFSM,FSM,FSM,,http://en.wikipedia.org/wiki/Fort_Smith_Regional_Airport,
3545,KFTW,large_airport,Fort Worth Meacham International Airport,32.819801,-97.362396,710,NA,US,US-TX,Fort Worth,no,KFTW,FTW,FTW,http://meacham.com/,http://en.wikipedia.org/wiki/Fort_Worth_Meacham_International_Airport,
3547,KFWA,large_airport,Fort Wayne International Airport,40.97850037,-85.19509888,814,NA,US,US-IN,Fort Wayne,yes,KFWA,FWA,FWA,https://fwairport.com/,http://en.wikipedia.org/wiki/Fort_Wayne_International_Airport,Baer Field
3552,KGEG,large_airport,Spokane International Airport,47.61989975,-117.5339966,2376,NA,US,US-WA,Spokane,yes,KGEG,GEG,GEG,,http://en.wikipedia.org/wiki/Spokane_International_Airport,
3561,KGPT,large_airport,Gulfport Biloxi International Airport,30.40730095,-89.07009888,28,NA,US,US-MS,Gulfport,yes,KGPT,GPT,GPT,,http://en.wikipedia.org/wiki/Gulfport-Biloxi_International_Airport,
3562,KGRB,large_airport,Austin Straubel International Airport,44.48509979,-88.12960052,695,NA,US,US-WI,Green Bay,yes,KGRB,GRB,GRB,,http://en.wikipedia.org/wiki/Austin_Straubel_International_Airport,
3567,KGSB,large_airport,Seymour Johnson Air Force Base,35.33940125,-77.96060181,109,NA,US,US-NC,Goldsboro,no,KGSB,GSB,GSB,http://www.seymourjohnson.af.mil/,http://en.wikipedia.org/wiki/Seymour_Johnson_Air_Force_Base,
3568,KGSO,large_airport,Piedmont Triad International Airport,36.09780121,-79.93730164,925,NA,US,US-NC,Greensboro,yes,KGSO,GSO,GSO,,http://en.wikipedia.org/wiki/Piedmont_Triad_International_Airport,
3569,KGSP,large_airport,Greenville Spartanburg International Airport,34.89569855,-82.21890259,964,NA,US,US-SC,Greenville,yes,KGSP,GSP,GSP,,http://en.wikipedia.org/wiki/Greenville-Spartanburg_International_Airport,
3573,KGUS,large_airport,Grissom Air Reserve Base,40.64810181,-86.15209961,812,NA,US,US-IN,Peru,no,KGUS,GUS,GUS,http://www.grissom.afrc.af.mil/,http://en.wikipedia.org/wiki/Grissom_Air_Reserve_Base,
3579,KHIB,large_airport,Range Regional Airport,47.38660049,-92.83899689,1354,NA,US,US-MN,Hibbing,yes,KHIB,HIB,HIB,,http://en.wikipedia.org/wiki/Range_Regional_Airport,Chisholm Hibbing Airport
3584,KHMN,large_airport,Holloman Air Force Base,32.85250092,-106.1070023,4093,NA,US,US-NM,Alamogordo,no,KHMN,HMN,HMN,http://www.holloman.af.mil/,http://en.wikipedia.org/wiki/Holloman_Air_Force_Base,Alamogordo AAF
3588,KHOU,large_airport,William P Hobby Airport,29.64539909,-95.27890015,46,NA,US,US-TX,Houston,yes,KHOU,HOU,HOU,http://www.fly2houston.com/hobbyHome,http://en.wikipedia.org/wiki/William_P._Hobby_Airport,QHO
3594,KHSV,large_airport,Huntsville International Carl T Jones Field,34.6371994,-86.77510071,629,NA,US,US-AL,Huntsville,yes,KHSV,HSV,HSV,http://www.flyhuntsville.com/portal/#.VbaG-_lVhBc,http://en.wikipedia.org/wiki/Huntsville_International_Airport,
3595,KHTS,large_airport,Tri-State/Milton J. Ferguson Field,38.36669922,-82.55799866,828,NA,US,US-WV,Huntington,yes,KHTS,HTS,HTS,,http://en.wikipedia.org/wiki/Tri-State_Airport,
3602,KIAD,large_airport,Washington Dulles International Airport,38.94449997,-77.45580292,312,NA,US,US-DC,Washington,yes,KIAD,IAD,IAD,http://www.mwaa.com/dulles/,http://en.wikipedia.org/wiki/Washington_Dulles_International_Airport,WAS
3604,KIAH,large_airport,George Bush Intercontinental Houston Airport,29.9843998,-95.34140015,97,NA,US,US-TX,Houston,yes,KIAH,IAH,IAH,http://www.fly2houston.com/iah,http://en.wikipedia.org/wiki/George_Bush_Intercontinental_Airport,QHO
3605,KICT,large_airport,Wichita Mid Continent Airport,37.64989853,-97.43309784,1333,NA,US,US-KS,Wichita,yes,KICT,ICT,ICT,,http://en.wikipedia.org/wiki/Kansas_City_International_Airport,
3610,KIND,large_airport,Indianapolis International Airport,39.7173,-86.294403,797,NA,US,US-IN,Indianapolis,yes,KIND,IND,IND,http://www.indianapolisairport.com/,http://en.wikipedia.org/wiki/Indianapolis_International_Airport,
3619,KJAN,large_airport,Jackson-Medgar Wiley Evers International Airport,32.31119919,-90.07589722,346,NA,US,US-MS,Jackson,yes,KJAN,JAN,JAN,,http://en.wikipedia.org/wiki/Jackson-Evers_International_Airport,
3620,KJAX,large_airport,Jacksonville International Airport,30.49410057,-81.68789673,30,NA,US,US-FL,Jacksonville,yes,KJAX,JAX,JAX,,http://en.wikipedia.org/wiki/Jacksonville_International_Airport,
3622,KJFK,large_airport,John F Kennedy International Airport,40.63980103,-73.77890015,13,NA,US,US-NY,New York,yes,KJFK,JFK,JFK,http://www.panynj.gov/CommutingTravel/airports/html/kennedy.html,http://en.wikipedia.org/wiki/John_F._Kennedy_International_Airport,"Manhattan, New York City, NYC, Idlewild"
3623,KJLN,large_airport,Joplin Regional Airport,37.15179825,-94.49829865,981,NA,US,US-MO,Joplin,yes,KJLN,JLN,JLN,,http://en.wikipedia.org/wiki/Joplin_Regional_Airport,
3631,KLAS,large_airport,McCarran International Airport,36.08010101,-115.1520004,2181,NA,US,US-NV,Las Vegas,yes,KLAS,LAS,LAS,http://www.mccarran.com/,http://en.wikipedia.org/wiki/McCarran_International_Airport,
3632,KLAX,large_airport,Los Angeles International Airport,33.94250107,-118.4079971,125,NA,US,US-CA,Los Angeles,yes,KLAX,LAX,LAX,http://www.iflylax.com/,http://en.wikipedia.org/wiki/Los_Angeles_International_Airport,
3633,KLBB,large_airport,Lubbock Preston Smith International Airport,33.663601,-101.822998,3282,NA,US,US-TX,Lubbock,yes,KLBB,LBB,LBB,http://www.flylia.com/,http://en.wikipedia.org/wiki/Lubbock_Preston_Smith_International_Airport,
3638,KLCK,large_airport,Rickenbacker International Airport,39.813801,-82.927803,744,NA,US,US-OH,Columbus,yes,KLCK,LCK,LCK,http://rickenbackerinlandport.com/en/rickenbacker-international-airport/,http://en.wikipedia.org/wiki/Rickenbacker_International_Airport,Lockbourne Army Air Field
3640,KLEX,large_airport,Blue Grass Airport,38.03649902,-84.60590363,979,NA,US,US-KY,Lexington,yes,KLEX,LEX,LEX,http://www.bluegrassairport.com/,http://en.wikipedia.org/wiki/Blue_Grass_Airport,
3641,KLFI,large_airport,Langley Air Force Base,37.082901,-76.36049652,11,NA,US,US-VA,Hampton,no,KLFI,LFI,LFI,http://www.langleyafb.us/,http://en.wikipedia.org/wiki/Langley_Field,Langley Field
3642,KLFT,large_airport,Lafayette Regional Airport,30.20529938,-91.98760223,42,NA,US,US-LA,Lafayette,yes,KLFT,LFT,LFT,http://www.lftairport.com/Home,http://en.wikipedia.org/wiki/Lafayette_Regional_Airport,
3643,KLGA,large_airport,La Guardia Airport,40.77719879,-73.87259674,21,NA,US,US-NY,New York,yes,KLGA,LGA,LGA,http://www.panynj.gov/CommutingTravel/airports/html/laguardia.html,http://en.wikipedia.org/wiki/LaGuardia_Airport,"Manhattan, New York City, NYC, Glenn H. Curtiss Airport, North Beach Airport, La Guardia"
3645,KLIT,large_airport,Bill & Hillary Clinton National Airport/Adams Field,34.72940063,-92.22429657,262,NA,US,US-AR,Little Rock,yes,KLIT,LIT,LIT,,http://en.wikipedia.org/wiki/Little_Rock_National_Airport,
3657,KLTS,large_airport,Altus Air Force Base,34.667099,-99.26670074,1382,NA,US,US-OK,Altus,no,KLTS,LTS,LTS,http://www.altus.af.mil/,http://en.wikipedia.org/wiki/Altus_Air_Force_Base,
3658,KLUF,large_airport,Luke Air Force Base,33.53499985,-112.3830032,1085,NA,US,US-AZ,Glendale,no,KLUF,LUF,LUF,http://www.luke.af.mil/,http://en.wikipedia.org/wiki/Luke_Air_Force_Base,
3664,KMBS,large_airport,MBS International Airport,43.53290176,-84.07959747,668,NA,US,US-MI,Saginaw,yes,KMBS,MBS,MBS,http://www.mbsairport.org/,http://en.wikipedia.org/wiki/MBS_International_Airport,"Tri City Airport, Midland, Bay City"
3667,KMCF,large_airport,Mac Dill Air Force Base,27.84930038,-82.52120209,14,NA,US,US-FL,Tampa,no,KMCF,MCF,MCF,http://www.macdill.af.mil/,http://en.wikipedia.org/wiki/MacDill_Air_Force_Base,"Southeast Air Base - Tampa, MacDill Field"
3668,KMCI,large_airport,Kansas City International Airport,39.2976,-94.713898,1026,NA,US,US-MO,Kansas City,yes,KMCI,MCI,MCI,http://www.flykci.com/,https://en.wikipedia.org/wiki/Kansas_City_International_Airport,
3670,KMCO,large_airport,Orlando International Airport,28.42939949,-81.30899811,96,NA,US,US-FL,Orlando,yes,KMCO,MCO,MCO,http://www.orlandoairports.net/,http://en.wikipedia.org/wiki/Orlando_International_Airport,"Disney World,Epcot Center"
3673,KMDW,large_airport,Chicago Midway International Airport,41.7859993,-87.75240326,620,NA,US,US-IL,Chicago,yes,KMDW,MDW,MDW,http://www.flychicago.com/midway/MidwayHomepage.shtm,http://en.wikipedia.org/wiki/Chicago_Midway_International_Airport,CHI
3675,KMEM,large_airport,Memphis International Airport,35.04240036,-89.97669983,341,NA,US,US-TN,Memphis,yes,KMEM,MEM,MEM,,http://en.wikipedia.org/wiki/Memphis_International_Airport,
3680,KMGE,large_airport,Dobbins Air Reserve Base,33.91540146,-84.51629639,1068,NA,US,US-GA,Marietta,no,KMGE,MGE,MGE,http://www.dobbins.afrc.af.mil/,http://en.wikipedia.org/wiki/Dobbins_Air_Reserve_Base,"Rickenbacker Field, Marietta AAF, Marietta AFB, Dobbins AFB"
3681,KMGM,large_airport,Montgomery Regional (Dannelly Field) Airport,32.30059814,-86.39399719,221,NA,US,US-AL,Montgomery,yes,KMGM,MGM,MGM,http://www.flymgm.com/,http://en.wikipedia.org/wiki/Montgomery_Regional_Airport,
3684,KMHT,large_airport,Manchester Airport,42.93259811,-71.43569946,266,NA,US,US-NH,Manchester,yes,KMHT,MHT,MHT,,http://en.wikipedia.org/wiki/Manchester-Boston_Regional_Airport,
3685,KMIA,large_airport,Miami International Airport,25.79319954,-80.29060364,8,NA,US,US-FL,Miami,yes,KMIA,MIA,MIA,http://www.miami-airport.com/,http://en.wikipedia.org/wiki/Miami_International_Airport,"MFW, South Florida"
3690,KMKE,large_airport,General Mitchell International Airport,42.94720078,-87.89659882,723,NA,US,US-WI,Milwaukee,yes,KMKE,MKE,MKE,,http://en.wikipedia.org/wiki/General_Mitchell_International_Airport,
3695,KMLI,large_airport,Quad City International Airport,41.44850159,-90.50749969,590,NA,US,US-IL,Moline,yes,KMLI,MLI,MLI,,http://en.wikipedia.org/wiki/Quad_City_International_Airport,
3697,KMLU,large_airport,Monroe Regional Airport,32.51089859,-92.03769684,79,NA,US,US-LA,Monroe,yes,KMLU,MLU,MLU,,http://en.wikipedia.org/wiki/Monroe_Regional_Airport,
3700,KMOB,large_airport,Mobile Regional Airport,30.69120026,-88.24279785,219,NA,US,US-AL,Mobile,yes,KMOB,MOB,MOB,http://www.mobairport.com/,http://en.wikipedia.org/wiki/Mobile_Regional_Airport,
3707,KMSN,large_airport,Dane County Regional Truax Field,43.13990021,-89.33750153,887,NA,US,US-WI,Madison,yes,KMSN,MSN,MSN,,http://en.wikipedia.org/wiki/Dane_County_Regional_Airport,
3709,KMSP,large_airport,Minneapolis-St Paul International/Wold-Chamberlain Airport,44.88199997,-93.22180176,841,NA,US,US-MN,Minneapolis,yes,KMSP,MSP,MSP,http://www.mspairport.com/,http://en.wikipedia.org/wiki/Minneapolis-Saint_Paul_International_Airport,
3711,KMSY,large_airport,Louis Armstrong New Orleans International Airport,29.99340057,-90.25800323,4,NA,US,US-LA,New Orleans,yes,KMSY,MSY,MSY,,http://en.wikipedia.org/wiki/Louis_Armstrong_New_Orleans_International_Airport,
3715,KMUO,large_airport,Mountain Home Air Force Base,43.043598,-115.872002,2996,NA,US,US-ID,Mountain Home,no,KMUO,MUO,MUO,http://www.mountainhome.af.mil/,https://en.wikipedia.org/wiki/Mountain_Home_Air_Force_Base,
3744,KOAK,large_airport,Metropolitan Oakland International Airport,37.721298,-122.221001,9,NA,US,US-CA,Oakland,yes,KOAK,OAK,OAK,http://www.oaklandairport.com/,http://en.wikipedia.org/wiki/Oakland_International_Airport,"QSF, QBA"
3747,KOKC,large_airport,Will Rogers World Airport,35.39310074,-97.60070038,1295,NA,US,US-OK,Oklahoma City,yes,KOKC,OKC,OKC,,http://en.wikipedia.org/wiki/Will_Rogers_World_Airport,
3752,KONT,large_airport,Ontario International Airport,34.05599976,-117.6009979,944,NA,US,US-CA,Ontario,yes,KONT,ONT,ONT,,http://en.wikipedia.org/wiki/LA/Ontario_International_Airport,
3754,KORD,large_airport,Chicago O'Hare International Airport,41.97859955,-87.90480042,672,NA,US,US-IL,Chicago,yes,KORD,ORD,ORD,http://www.flychicago.com/ohare/en/home/Pages/default.aspx,http://en.wikipedia.org/wiki/O'Hare_International_Airport,"CHI, Orchard Place"
3755,KORF,large_airport,Norfolk International Airport,36.89459991,-76.20120239,26,NA,US,US-VA,Norfolk,yes,KORF,ORF,ORF,,http://en.wikipedia.org/wiki/Norfolk_International_Airport,
3765,KPAM,large_airport,Tyndall Air Force Base,30.06959915,-85.57540131,17,NA,US,US-FL,Panama City,no,KPAM,PAM,PAM,http://www.tyndall.af.mil/,http://en.wikipedia.org/wiki/Tyndall_Air_Force_Base,
3766,KPBI,large_airport,Palm Beach International Airport,26.68320084,-80.09559631,19,NA,US,US-FL,West Palm Beach,yes,KPBI,PBI,PBI,,http://en.wikipedia.org/wiki/Palm_Beach_International_Airport,"MFW, South Florida"
3768,KPDX,large_airport,Portland International Airport,45.58869934,-122.5979996,31,NA,US,US-OR,Portland,yes,KPDX,PDX,PDX,,http://en.wikipedia.org/wiki/Portland_International_Airport,
3770,KPHF,large_airport,Newport News Williamsburg International Airport,37.13190079,-76.49299622,42,NA,US,US-VA,Newport News,yes,KPHF,PHF,PHF,,http://en.wikipedia.org/wiki/Newport_News/Williamsburg_International_Airport,
3771,KPHL,large_airport,Philadelphia International Airport,39.87189865,-75.2410965,36,NA,US,US-PA,Philadelphia,yes,KPHL,PHL,PHL,http://www.phl.org/,http://en.wikipedia.org/wiki/Philadelphia_International_Airport,
3772,KPHX,large_airport,Phoenix Sky Harbor International Airport,33.43429947,-112.012001,1135,NA,US,US-AZ,Phoenix,yes,KPHX,PHX,PHX,http://phoenix.gov/skyharborairport/,http://en.wikipedia.org/wiki/Phoenix_Sky_Harbor_International_Airport,
3773,KPIA,large_airport,General Wayne A. Downing Peoria International Airport,40.66419983,-89.69329834,660,NA,US,US-IL,Peoria,yes,KPIA,PIA,PIA,,http://en.wikipedia.org/wiki/General_Wayne_A._Downing_Peoria_International_Airport,Peoria International Airport
3778,KPIT,large_airport,Pittsburgh International Airport,40.49150085,-80.23290253,1203,NA,US,US-PA,Pittsburgh,yes,KPIT,PIT,PIT,,http://en.wikipedia.org/wiki/Pittsburgh_International_Airport,
3796,KPWM,large_airport,Portland International Jetport Airport,43.64619827,-70.30930328,76,NA,US,US-ME,Portland,yes,KPWM,PWM,PWM,,http://en.wikipedia.org/wiki/Portland_International_Jetport,
3844,KRDU,large_airport,Raleigh Durham International Airport,35.87760162,-78.78749847,435,NA,US,US-NC,Raleigh/Durham,yes,KRDU,RDU,RDU,,http://en.wikipedia.org/wiki/Raleigh-Durham_International_Airport,
3845,KRFD,large_airport,Chicago Rockford International Airport,42.19540024,-89.09719849,742,NA,US,US-IL,Chicago/Rockford,yes,KRFD,RFD,RFD,,http://en.wikipedia.org/wiki/Chicago/Rockford_International_Airport,
3847,KRIC,large_airport,Richmond International Airport,37.50519943,-77.31970215,167,NA,US,US-VA,Richmond,yes,KRIC,RIC,RIC,,http://en.wikipedia.org/wiki/Richmond_International_Airport,
3852,KRND,large_airport,Randolph Air Force Base,29.52969933,-98.27890015,761,NA,US,US-TX,Universal City,no,KRND,RND,RND,http://www.military.com/base-guide/randolph-air-force-base,http://en.wikipedia.org/wiki/Randolph_Air_Force_Base,
3853,KRNO,large_airport,Reno Tahoe International Airport,39.49909973,-119.7679977,4415,NA,US,US-NV,Reno,yes,KRNO,RNO,RNO,,http://en.wikipedia.org/wiki/Reno-Tahoe_International_Airport,
3854,KROA,large_airport,Roanoke–Blacksburg Regional Airport,37.3255,-79.975403,1175,NA,US,US-VA,Roanoke,yes,KROA,ROA,ROA,http://www.roanokeairport.com/,http://en.wikipedia.org/wiki/Roanoke%E2%80%93Blacksburg_Regional_Airport,Woodrum Field
3855,KROC,large_airport,Greater Rochester International Airport,43.1189003,-77.67240143,559,NA,US,US-NY,Rochester,yes,KROC,ROC,ROC,,http://en.wikipedia.org/wiki/Greater_Rochester_International_Airport,
3857,KRST,large_airport,Rochester International Airport,43.90829849,-92.5,1317,NA,US,US-MN,Rochester,yes,KRST,RST,RST,,http://en.wikipedia.org/wiki/Rochester_International_Airport,
3858,KRSW,large_airport,Southwest Florida International Airport,26.53619957,-81.75520325,30,NA,US,US-FL,Fort Myers,yes,KRSW,RSW,RSW,http://www.flylcpa.com/,http://en.wikipedia.org/wiki/Southwest_Florida_International_Airport,
3862,KSAN,large_airport,San Diego International Airport,32.73360062,-117.1900024,17,NA,US,US-CA,San Diego,yes,KSAN,SAN,SAN,http://www.san.org/,http://en.wikipedia.org/wiki/San_Diego_International_Airport,Lindbergh Field
3863,KSAT,large_airport,San Antonio International Airport,29.53370094,-98.46980286,809,NA,US,US-TX,San Antonio,yes,KSAT,SAT,SAT,,http://en.wikipedia.org/wiki/San_Antonio_International_Airport,
3864,KSAV,large_airport,Savannah Hilton Head International Airport,32.12760162,-81.20210266,50,NA,US,US-GA,Savannah,yes,KSAV,SAV,SAV,,http://en.wikipedia.org/wiki/Savannah/Hilton_Head_International_Airport,
3868,KSBN,large_airport,South Bend Regional Airport,41.70869827,-86.31729889,799,NA,US,US-IN,South Bend,yes,KSBN,SBN,SBN,,http://en.wikipedia.org/wiki/South_Bend_Regional_Airport,
3873,KSDF,large_airport,Louisville International Standiford Field,38.1744,-85.736,501,NA,US,US-KY,Louisville,yes,KSDF,SDF,SDF,http://www.flylouisville.com,http://en.wikipedia.org/wiki/Louisville_International_Airport,
3875,KSEA,large_airport,Seattle Tacoma International Airport,47.44900131,-122.3089981,433,NA,US,US-WA,Seattle,yes,KSEA,SEA,SEA,http://www.portseattle.org/seatac/,http://en.wikipedia.org/wiki/Seattle-Tacoma_International_Airport,
3876,KSFB,large_airport,Orlando Sanford International Airport,28.77759933,-81.23750305,55,NA,US,US-FL,Orlando,yes,KSFB,SFB,SFB,,http://en.wikipedia.org/wiki/Orlando_Sanford_International_Airport,
3878,KSFO,large_airport,San Francisco International Airport,37.61899948,-122.375,13,NA,US,US-CA,San Francisco,yes,KSFO,SFO,SFO,http://www.flysfo.com/,http://en.wikipedia.org/wiki/San_Francisco_International_Airport,"QSF, QBA"
3879,KSGF,large_airport,Springfield Branson National Airport,37.24570084,-93.38860321,1268,NA,US,US-MO,Springfield,yes,KSGF,SGF,SGF,,http://en.wikipedia.org/wiki/Springfield/Branson_National_Airport,
3882,KSHV,large_airport,Shreveport Regional Airport,32.44660187,-93.82559967,258,NA,US,US-LA,Shreveport,yes,KSHV,SHV,SHV,,http://en.wikipedia.org/wiki/Shreveport_Regional_Airport,
3883,KSJC,large_airport,Norman Y. Mineta San Jose International Airport,37.362598,-121.929001,62,NA,US,US-CA,San Jose,yes,KSJC,SJC,SJC,http://www.flysanjose.com/,http://en.wikipedia.org/wiki/San_Jose_International_Airport,"QSF, QBA"
3885,KSKA,large_airport,Fairchild Air Force Base,47.61510086,-117.6559982,2461,NA,US,US-WA,Spokane,no,KSKA,SKA,SKA,http://www.fairchild.af.mil/,http://en.wikipedia.org/wiki/Fairchild_Air_Force_Base,
3887,KSLC,large_airport,Salt Lake City International Airport,40.78839874,-111.9779968,4227,NA,US,US-UT,Salt Lake City,yes,KSLC,SLC,SLC,,http://en.wikipedia.org/wiki/Salt_Lake_City_International_Airport,
3892,KSMF,large_airport,Sacramento International Airport,38.69540024,-121.5910034,27,NA,US,US-CA,Sacramento,yes,KSMF,SMF,SMF,,http://en.wikipedia.org/wiki/Sacramento_International_Airport,
3894,KSNA,large_airport,John Wayne Airport-Orange County Airport,33.67570114,-117.8679962,56,NA,US,US-CA,Santa Ana,yes,KSNA,SNA,SNA,http://www.ocair.com/,http://en.wikipedia.org/wiki/John_Wayne_Airport,"Disney, Disneyland, Orange County"
3897,KSPI,large_airport,Abraham Lincoln Capital Airport,39.84410095,-89.67790222,598,NA,US,US-IL,Springfield,yes,KSPI,SPI,SPI,,http://en.wikipedia.org/wiki/Abraham_Lincoln_Capital_Airport,
3898,KSPS,large_airport,Sheppard Air Force Base-Wichita Falls Municipal Airport,33.9888,-98.491898,1019,NA,US,US-TX,Wichita Falls,yes,KSPS,SPS,SPS,http://www.flywichitafalls.net/,http://en.wikipedia.org/wiki/Wichita_Falls_Municipal_Airport,Sheppard Air Force Base
3899,KSRQ,large_airport,Sarasota Bradenton International Airport,27.39539909,-82.55439758,30,NA,US,US-FL,Sarasota/Bradenton,yes,KSRQ,SRQ,SRQ,,http://en.wikipedia.org/wiki/Sarasota-Bradenton_International_Airport,
3901,KSSC,large_airport,Shaw Air Force Base,33.97269821,-80.47059631,241,NA,US,US-SC,Sumter,no,KSSC,SSC,SSC,http://www.shaw.af.mil/,http://en.wikipedia.org/wiki/Shaw_Air_Force_Base,
3905,KSTL,large_airport,St Louis Lambert International Airport,38.748697,-90.370003,618,NA,US,US-MO,St Louis,yes,KSTL,STL,STL,http://www.lambert-stlouis.com/,http://en.wikipedia.org/wiki/Lambert-St._Louis_International_Airport,Lambert St Louis
3907,KSUS,large_airport,Spirit of St Louis Airport,38.66210175,-90.65200043,463,NA,US,US-MO,St Louis,no,KSUS,SUS,SUS,http://spiritairport.com/spiritairport/index.jsp,http://en.wikipedia.org/wiki/Spirit_of_St._Louis_Airport,
3908,KSUU,large_airport,Travis Air Force Base,38.26269913,-121.927002,62,NA,US,US-CA,Fairfield,no,KSUU,SUU,SUU,http://www.travis.af.mil/,http://en.wikipedia.org/wiki/Travis_Air_Force_Base,
3909,KSUX,large_airport,Sioux Gateway Col. Bud Day Field,42.40259933,-96.38439941,1098,NA,US,US-IA,Sioux City,yes,KSUX,SUX,SUX,,http://en.wikipedia.org/wiki/Sioux_Gateway_Airport,
3913,KSYR,large_airport,Syracuse Hancock International Airport,43.11119843,-76.10630035,421,NA,US,US-NY,Syracuse,yes,KSYR,SYR,SYR,http://www.syrairport.org/,http://en.wikipedia.org/wiki/Syracuse_Hancock_International_Airport,
3914,KSZL,large_airport,Whiteman Air Force Base,38.7303009,-93.54789734,870,NA,US,US-MO,Knob Noster,no,KSZL,SZL,SZL,http://www.whiteman.af.mil/,http://en.wikipedia.org/wiki/Whiteman_Air_Force_Base,Sedalia Glider Base
3918,KTCM,large_airport,McChord Air Force Base,47.13769913,-122.4759979,322,NA,US,US-WA,Tacoma,no,KTCM,TCM,TCM,,http://en.wikipedia.org/wiki/McChord_Air_Force_Base,
3921,KTIK,large_airport,Tinker Air Force Base,35.41469955,-97.38659668,1291,NA,US,US-OK,Oklahoma City,no,KTIK,TIK,TIK,http://www.tinker.af.mil/,https://en.wikipedia.org/wiki/Tinker_Air_Force_Base,Midwest Air Depot
3924,KTLH,large_airport,Tallahassee Regional Airport,30.39649963,-84.35030365,81,NA,US,US-FL,Tallahassee,yes,KTLH,TLH,TLH,,http://en.wikipedia.org/wiki/Tallahassee_Regional_Airport,
3925,KTOL,large_airport,Toledo Express Airport,41.58679962,-83.80780029,683,NA,US,US-OH,Toledo,yes,KTOL,TOL,TOL,,http://en.wikipedia.org/wiki/Toledo_Express_Airport,
3926,KTPA,large_airport,Tampa International Airport,27.97550011,-82.53320313,26,NA,US,US-FL,Tampa,yes,KTPA,TPA,TPA,,http://en.wikipedia.org/wiki/Tampa_International_Airport,
3928,KTRI,large_airport,Tri-Cities Regional TN/VA Airport,36.475201,-82.407401,1519,NA,US,US-TN,Bristol/Johnson/Kingsport,yes,KTRI,TRI,TRI,,http://en.wikipedia.org/wiki/Tri-Cities_Regional_Airport,
3930,KTUL,large_airport,Tulsa International Airport,36.19839859,-95.88809967,677,NA,US,US-OK,Tulsa,yes,KTUL,TUL,TUL,,http://en.wikipedia.org/wiki/Tulsa_International_Airport,
3932,KTUS,large_airport,Tucson International Airport,32.11610031,-110.9410019,2643,NA,US,US-AZ,Tucson,yes,KTUS,TUS,TUS,,http://en.wikipedia.org/wiki/Tucson_International_Airport,
3938,KTYS,large_airport,McGhee Tyson Airport,35.81100082,-83.9940033,981,NA,US,US-TN,Knoxville,yes,KTYS,TYS,TYS,,http://en.wikipedia.org/wiki/McGhee_Tyson_Airport,
3944,KVBG,large_airport,Vandenberg Air Force Base,34.73730087,-120.5839996,369,NA,US,US-CA,Lompoc,no,KVBG,VBG,VBG,,http://en.wikipedia.org/wiki/Vandenberg_Air_Force_Base,
3948,KVPS,large_airport,Destin-Ft Walton Beach Airport,30.4832,-86.525398,87,NA,US,US-FL,Valparaiso,yes,KVPS,VPS,VPS,http://www.flyvps.com/,https://en.wikipedia.org/wiki/Destin%E2%80%93Fort_Walton_Beach_Airport,Eglin AFB
3951,KWRB,large_airport,Robins Air Force Base,32.64009857,-83.59190369,294,NA,US,US-GA,Warner Robins,no,KWRB,WRB,WRB,http://www.robins.af.mil/,https://en.wikipedia.org/wiki/Robins_Air_Force_Base,
3972,LATI,large_airport,Tirana International Airport Mother Teresa,41.41469955,19.72060013,126,EU,AL,AL-11,Tirana,yes,LATI,TIA,,http://www.tirana-airport.com/,http://en.wikipedia.org/wiki/Tirana_International_Airport_N%C3%ABn%C3%AB_Tereza,"Rinas International Airport, Aeroporti Nënë Tereza"
3974,LBBG,large_airport,Burgas Airport,42.56959915,27.51519966,135,EU,BG,BG-02,Burgas,yes,LBBG,BOJ,,,http://en.wikipedia.org/wiki/Burgas_Airport,
3977,LBSF,large_airport,Sofia Airport,42.69669342,23.41143608,1742,EU,BG,BG-23,Sofia,yes,LBSF,SOF,,http://sofia-airport.bg,http://en.wikipedia.org/wiki/Sofia_Airport,
3979,LBWN,large_airport,Varna Airport,43.232101,27.8251,230,EU,BG,BG-03,Varna,yes,LBWN,VAR,,,http://en.wikipedia.org/wiki/Varna_Airport,
3980,LCLK,large_airport,Larnaca International Airport,34.87509918,33.62490082,8,AS,CY,CY-04,Larnarca,yes,LCLK,LCA,,http://www.cyprusairports.com.cy/showpage.php?PageID=2,http://en.wikipedia.org/wiki/Larnaca_International_Airport,Διεθνές Aεροδρόμιο Λάρνακας
3981,LCPH,large_airport,Paphos International Airport,34.7179985,32.4856987,41,AS,CY,CY-06,Paphos,yes,LCPH,PFO,,http://paphosinternationalairport.com/index_papxmas.html,http://en.wikipedia.org/wiki/Paphos_International_Airport,"Pafos, Mandria, Kouklia, Διεθνής Αερολιμένας Πάφου"
3982,LCRA,large_airport,RAF Akrotiri,34.590401,32.9879,76,EU,GB,GB-U-A,Akrotiri,yes,LCRA,AKT,,http://www.raf.mod.uk/rafakrotiri/passengerinformation/,http://en.wikipedia.org/wiki/Akrotiri,"Royal Air Force,"
3993,LDZA,large_airport,Zagreb Airport,45.74290085,16.06879997,353,EU,HR,HR-21,Zagreb,yes,LDZA,ZAG,,,http://en.wikipedia.org/wiki/Zagreb_Airport,Pleso
3997,LEAL,large_airport,Alicante International Airport,38.28219986,-0.558156013,142,EU,ES,ES-V,Alicante,yes,LEAL,ALC,,http://www.aena.es/csee/Satellite?cid=1049437849176&pagename=subHome&Language=EN_GB&SiteName=ALC&c=Page,http://en.wikipedia.org/wiki/Alicante_Airport,
4004,LEBL,large_airport,Barcelona International Airport,41.29710007,2.078459978,12,EU,ES,ES-CT,Barcelona,yes,LEBL,BCN,,http://www.aena.es/csee/Satellite?cid=1045569607459&pagename=subHome&Language=EN_GB&SiteName=BCN&c=Page,http://en.wikipedia.org/wiki/Barcelona_International_Airport,
4019,LEMD,large_airport,Adolfo Suárez Madrid–Barajas Airport,40.471926,-3.56264,1998,EU,ES,ES-M,Madrid,yes,LEMD,MAD,,http://www.aena.es/csee/Satellite?cid=1049727006353&pagename=subHome&SiteName=MAD&c=Page&Language=EN_GB,http://en.wikipedia.org/wiki/Adolfo_Su%C3%A1rez_Madrid%E2%80%93Barajas_Airport#cite_note-1,"Leganés, Madrid Barajas International Airport"
4020,LEMG,large_airport,Málaga Airport,36.67490005,-4.499110222,53,EU,ES,ES-AN,Málaga,yes,LEMG,AGP,,,http://en.wikipedia.org/wiki/M%C3%A1laga_Airport,Costa del Sol
4035,LEPA,large_airport,Palma De Mallorca Airport,39.55170059,2.738810062,27,EU,ES,ES-PM,Palma De Mallorca,yes,LEPA,PMI,,http://www.aena.es/csee/Satellite?cid=1046276292735&pagename=subHome&Language=EN_GB&SiteName=PMI&c=Page,http://en.wikipedia.org/wiki/Son_Sant_Joan_Airport,"Son Sant Joan Airport, LESJ"
4038,LEST,large_airport,Santiago de Compostela Airport,42.89630127,-8.415140152,1213,EU,ES,ES-GA,Santiago de Compostela,yes,LEST,SCQ,,,http://en.wikipedia.org/wiki/Santiago_de_Compostela_Airport,
4060,LFBD,large_airport,Bordeaux-Mérignac Airport,44.82830048,-0.715556026,162,EU,FR,FR-B,Bordeaux/Mérignac,yes,LFBD,BOD,,,http://en.wikipedia.org/wiki/Bordeaux%E2%80%93M%C3%A9rignac_Airport,
4070,LFBO,large_airport,Toulouse-Blagnac Airport,43.629101,1.36382,499,EU,FR,FR-N,Toulouse/Blagnac,yes,LFBO,TLS,,http://www.toulouse.aeroport.fr/,http://en.wikipedia.org/wiki/Toulouse_Blagnac_International_Airport,
4155,LFML,large_airport,Marseille Provence Airport,43.43927192,5.221424103,74,EU,FR,FR-U,Marseille,yes,LFML,MRS,,,http://en.wikipedia.org/wiki/Marseille_Provence_Airport,
4156,LFMN,large_airport,Nice-Côte d'Azur Airport,43.65840149,7.215869904,12,EU,FR,FR-U,Nice,yes,LFMN,NCE,,,http://en.wikipedia.org/wiki/C%C3%B4te_d'Azur_International_Airport,
4168,LFOA,large_airport,Avord (BA 702) Air Base,47.053299,2.6325,580,EU,FR,FR-F,Avord,no,LFOA,,,,https://en.wikipedia.org/wiki/Avord_Air_Base,
4185,LFPG,large_airport,Charles de Gaulle International Airport,49.01279831,2.549999952,392,EU,FR,FR-J,Paris,yes,LFPG,CDG,,http://www.aeroportsdeparis.fr/,http://en.wikipedia.org/wiki/Charles_de_Gaulle_International_Airport,"PAR, Aéroport Roissy-Charles de Gaulle, Roissy Airport"
4189,LFPO,large_airport,Paris-Orly Airport,48.7233333,2.3794444,291,EU,FR,FR-J,Paris,yes,LFPO,ORY,,,http://en.wikipedia.org/wiki/Orly_Airport_(Paris),PAR
4226,LFSB,large_airport,EuroAirport Basel-Mulhouse-Freiburg Airport,47.59,7.5291667,885,EU,FR,FR-A,Bâle/Mulhouse,yes,LFSB,BSL,,http://www.euroairport.com/,http://en.wikipedia.org/wiki/EuroAirport_Basel-Mulhouse-Freiburg,"MLH, EAP"
4251,LGAV,large_airport,Eleftherios Venizelos International Airport,37.93640137,23.94449997,308,EU,GR,GR-A1,Athens,yes,LGAV,ATH,,http://www.aia.gr,http://en.wikipedia.org/wiki/Athens_International_Airport,
4258,LGIR,large_airport,Heraklion International Nikos Kazantzakis Airport,35.33969879,25.18029976,115,EU,GR,GR-91,Heraklion,yes,LGIR,HER,,,http://en.wikipedia.org/wiki/Heraklion_International_Airport%2C_%22Nikos_Kazantzakis%22,Crete Island
4293,LGTS,large_airport,Thessaloniki Macedonia International Airport,40.5196991,22.97089958,22,EU,GR,GR-54,Thessaloniki,yes,LGTS,SKG,,,http://en.wikipedia.org/wiki/Thessaloniki_International_Airport%2C_%22Macedonia%22,Makedonia. Macedonia. Salonica
325333,LGW,large_airport,London Gatwick,0,0,,EU,GB,GB-ENG,London,yes,EGKK,LGW,,,,
4296,LHBP,large_airport,Budapest Ferenc Liszt International Airport,47.43690109,19.25559998,495,EU,HU,HU-PE,Budapest,yes,LHBP,BUD,,http://www.bud.hu/english,http://en.wikipedia.org/wiki/Budapest_Ferenc_Liszt_International_Airport,"Ferihegyi nemzetközi repülőtér, Budapest Liszt Ferenc international Airport"
4310,LIBD,large_airport,Bari Karol Wojtyła Airport,41.138901,16.760599,177,EU,IT,IT-75,Bari,yes,LIBD,BRI,BA02,http://www.seap-puglia.it/default.asp?idlingua=2&idcontenuto=25,http://en.wikipedia.org/wiki/Bari_Karol_Wojty%C5%82a_Airport,"Bari ""Karol Wojtyla"" International Airport, Palese Macchie Airport, Palese Airport"
4318,LICC,large_airport,Catania-Fontanarossa Airport,37.466801,15.0664,39,EU,IT,IT-82,Catania,yes,LICC,CTA,CT03,http://www.aeroporto.catania.it/,http://en.wikipedia.org/wiki/Catania-Fontanarossa_Airport,"Lanza Di Trabie, Catania-Fontanarossa Vincenzo Bellini"
4321,LICJ,large_airport,Falcone–Borsellino Airport,38.175999,13.091,65,EU,IT,IT-82,Palermo,yes,LICJ,PMO,PA03,http://www.gesap.it/index.php,http://en.wikipedia.org/wiki/Falcone%E2%80%93Borsellino_Airport,"Palermo Airport, Punta Raisi Airport"
4332,LIEE,large_airport,Cagliari Elmas Airport,39.251499,9.05428,13,EU,IT,IT-88,Cagliari,yes,LIEE,CAG,CA07,http://www.cagliariairport.it/en/,http://en.wikipedia.org/wiki/Cagliari_Elmas_Airport,"Cagliari Airport,Elmas"
4340,LIMC,large_airport,Malpensa International Airport,45.6306,8.72811,768,EU,IT,IT-25,Milan,yes,LIMC,MXP,MI12,http://www.sea-aeroportimilano.it/en/malpensa/index.phtml,http://en.wikipedia.org/wiki/Malpensa_Airport,MIL
4341,LIME,large_airport,Il Caravaggio International Airport,45.673901,9.70417,782,EU,IT,IT-25,Bergamo,yes,LIME,BGY,BG01,http://www.sacbo.it/,http://en.wikipedia.org/wiki/Il_Caravaggio_International_Airport,"Bergamo Orio al Serio Airport,Orio al Serio"
4342,LIMF,large_airport,Turin Airport,45.200802,7.64963,989,EU,IT,IT-21,Torino,yes,LIMF,TRN,TO11,http://www.aeroportoditorino.it/,http://en.wikipedia.org/wiki/Turin_International_Airport,"Torino-Caselle Airport, Sandro Pertini Airport, Turin-Caselle Airport"
4344,LIMJ,large_airport,Genoa Cristoforo Colombo Airport,44.4133,8.8375,13,EU,IT,IT-42,Genova,yes,LIMJ,GOA,GE01,http://www.aeroportodigenova.com/en/home/index.php,http://en.wikipedia.org/wiki/Genoa_Cristoforo_Colombo_Airport,"Genova Sestri, Sestri Cristoforo Colombo Airport, Cristoforo Colombo Airport"
4345,LIML,large_airport,Milano Linate Airport,45.445099,9.27674,353,EU,IT,IT-25,Milan,yes,LIML,LIN,MI11,http://www.sea-aeroportimilano.it/en/,http://en.wikipedia.org/wiki/Linate_Airport,E Forlanini
4354,LIPE,large_airport,Bologna Guglielmo Marconi Airport,44.5354,11.2887,123,EU,IT,IT-45,Bologna,yes,LIPE,BLQ,BO08,http://www.bologna-airport.it/?LN=UK,http://en.wikipedia.org/wiki/Bologna_Airport,"Guglielmo Marconi Airport, Borgo Panigale Airport"
4355,LIPH,large_airport,Treviso-Sant'Angelo Airport,45.648399,12.1944,59,EU,IT,IT-34,Treviso,yes,LIPH,TSF,TV01,http://www.trevisoairport.it/tsf/index.jsp?_requestid=677517&language=en,http://en.wikipedia.org/wiki/Treviso_Airport,"Venice, Antonio Canova Terminal, Treviso Airport"
4366,LIPX,large_airport,Verona Villafranca Airport,45.395699,10.8885,239,EU,IT,IT-34,Verona,yes,LIPX,VRN,VR10,http://www.aeroportoverona.it/,http://en.wikipedia.org/wiki/Verona_Airport,"Valerio Catullo, Villafranca International Airport, Valerio Catullo Airport, Villafranca Airport"
4368,LIPZ,large_airport,Venice Marco Polo Airport,45.505299,12.3519,7,EU,IT,IT-34,Venice,yes,LIPZ,VCE,VE05,http://www.veniceairport.com/core/index.jsp?_requestid=37300&language=en,http://en.wikipedia.org/wiki/Venice_Marco_Polo_Airport,Venezia Tessera
4370,LIRA,large_airport,Ciampino–G. B. Pastine International Airport,41.7994,12.5949,427,EU,IT,IT-62,Rome,yes,LIRA,CIA,RM12,,http://en.wikipedia.org/wiki/Ciampino%E2%80%93G._B._Pastine_International_Airport,"ROM, Giovan Battista Pastine Airport"
4372,LIRF,large_airport,Leonardo da Vinci–Fiumicino Airport,41.8002778,12.2388889,13,EU,IT,IT-62,Rome,yes,LIRF,FCO,RM11,http://www.adr.it/portal/portal/adr/Fiumicino/Leonardo_da_vinci/Header_Window?action=2,http://en.wikipedia.org/wiki/Leonardo_da_Vinci%E2%80%93Fiumicino_Airport,"ROM, Rome Fiumicino Airport, Fiumicino Airport"
4378,LIRN,large_airport,Naples International Airport,40.886002,14.2908,294,EU,IT,IT-72,Nápoli,yes,LIRN,NAP,NA01,http://www.portal.gesac.it/,http://en.wikipedia.org/wiki/Naples_International_Airport,"Capodichino Airport, Aeroporto di Napoli-Capodichino, Aeroporto Internazionale di Napoli"
4379,LIRP,large_airport,Pisa International Airport,43.683899,10.3927,6,EU,IT,IT-52,Pisa,yes,LIRP,PSA,PI05,http://www.pisa-airport.com/,http://en.wikipedia.org/wiki/Pisa_International_Airport,"Galileo Galilei Airport, San Giusto Airport"
4386,LJLJ,large_airport,Ljubljana Jože Pučnik Airport,46.223701,14.4576,1273,EU,SI,SI-061,Ljubljana,yes,LJLJ,LJU,,http://www.lju-airport.si/,http://en.wikipedia.org/wiki/Ljubljana_Jo%C5%BEe_Pu%C4%8Dnik_Airport,"Ljubljana, Brnik, Kranj"
4408,LKPR,large_airport,Václav Havel Airport Prague,50.1008,14.26,1247,EU,CZ,CZ-PR,Prague,yes,LKPR,PRG,,http://www.prg.aero,http://en.wikipedia.org/wiki/Ruzyn%C4%9B_International_Airport,"Letiště Praha-Ruzyně, Ruzyně International Airport, Letiště Václava Havla Praha"
4411,LLBG,large_airport,Ben Gurion International Airport,32.01139832,34.88669968,135,AS,IL,IL-M,Tel Aviv,yes,LLBG,TLV,,http://www.iaa.gov.il/Rashat/en-US/Airports/BenGurion/,http://en.wikipedia.org/wiki/Ben_Gurion_International_Airport,
4423,LLOV,large_airport,Ovda International Airport,29.94029999,34.93579865,1492,AS,IL,IL-D,Eilat,yes,LLOV,VDA,,,http://en.wikipedia.org/wiki/Ovda_International_Airport,Ovda Air Force Base
4427,LMML,large_airport,Malta International Airport,35.857498,14.4775,300,EU,MT,MT-25,Valletta,yes,LMML,MLA,,http://www.maltairport.com/en/home.htm,http://en.wikipedia.org/wiki/Malta_International_Airport,"Luqa Airport,Valletta,Gudja,RAF Luqa"
4434,LOWW,large_airport,Vienna International Airport,48.11029816,16.56970024,600,EU,AT,AT-9,Vienna,yes,LOWW,VIE,,http://www.viennaairport.com/en/,http://en.wikipedia.org/wiki/Vienna_International_Airport,
4448,LPFR,large_airport,Faro Airport,37.01440048,-7.965909958,24,EU,PT,PT-08,Faro,yes,LPFR,FAO,,http://www.ana.pt/en-US/Aeroportos/algarve/Faro/Pages/HomeFaro.aspx,http://en.wikipedia.org/wiki/Faro_Airport_(Portugal),
4451,LPLA,large_airport,Lajes Airport,38.761799,-27.090799,180,EU,PT,PT-20,Praia da Vitória,yes,LPLA,TER,,http://aerogarelajes.azores.gov.pt,http://en.wikipedia.org/wiki/Lajes_Field,Terceira Island
4456,LPPD,large_airport,João Paulo II Airport,37.74119949,-25.69790077,259,EU,PT,PT-20,Ponta Delgada,yes,LPPD,PDL,,http://www.ana.pt/en-US/Aeroportos/acores/PontaDelgada/Pages/Homepage-PontaDelgada.aspx,http://en.wikipedia.org/wiki/Jo%C3%A3o_Paulo_II_Airport,
4459,LPPR,large_airport,Francisco de Sá Carneiro Airport,41.24810028,-8.681389809,228,EU,PT,PT-13,Porto,yes,LPPR,OPO,,http://www.ana.pt/en-US/Aeroportos/porto/Porto/Pages/Homepage-Porto.aspx,http://en.wikipedia.org/wiki/Francisco_S%C3%A1_Carneiro_Airport,
4461,LPPT,large_airport,Lisbon Portela Airport,38.78129959,-9.135919571,374,EU,PT,PT-11,Lisbon,yes,LPPT,LIS,,http://www.ana.pt/en-US/Aeroportos/lisboa/Lisboa/Pages/HomeLisboa.aspx,http://en.wikipedia.org/wiki/Lisbon_Portela_Airport,Lisboa
4469,LQSA,large_airport,Sarajevo International Airport,43.82460022,18.3314991,1708,EU,BA,BA-BIH,Sarajevo,yes,LQSA,SJJ,,http://www.sarajevo-airport.ba/,http://en.wikipedia.org/wiki/Sarajevo_International_Airport,
4482,LROP,large_airport,Henri Coandă International Airport,44.5711111,26.085,314,EU,RO,RO-B,Bucharest,yes,LROP,OTP,,http://www.bucharestairports.ro/en/,http://en.wikipedia.org/wiki/Henri_Coand%C4%83_International_Airport,"BUH, Otopeni Airport, RoAF 90th Airlift Base"
4490,LSGG,large_airport,Geneva Cointrin International Airport,46.23809814,6.108950138,1411,EU,CH,CH-GE,Geneva,yes,LSGG,GVA,,http://www.gva.ch/,http://en.wikipedia.org/wiki/Geneva_Cointrin_International_Airport,
4505,LSZH,large_airport,Zürich Airport,47.46469879,8.54916954,1416,EU,CH,CH-ZH,Zurich,yes,LSZH,ZRH,,http://www.zurich-airport.com/,http://en.wikipedia.org/wiki/Z%C3%BCrich_Airport,
4509,LTAC,large_airport,Esenboğa International Airport,40.12810135,32.99509811,3125,AS,TR,TR-06,Ankara,yes,LTAC,ESB,,,http://en.wikipedia.org/wiki/Esenbo%C4%9Fa_International_Airport,
4512,LTAF,large_airport,Adana Airport,36.98220062,35.28039932,65,AS,TR,TR-01,Adana,yes,LTAF,ADA,,,http://en.wikipedia.org/wiki/Adana_%C5%9Eakirpa%C5%9Fa_Airport,"Şakirpaşa, Sakirpasa"
4515,LTAI,large_airport,Antalya International Airport,36.898701,30.800501,177,AS,TR,TR-07,Antalya,yes,LTAI,AYT,,http://www.antalya.dhmi.gov.tr/havaalanlari/default.aspx?hv=4,http://en.wikipedia.org/wiki/Antalya_Airport,
4516,LTAJ,large_airport,Gaziantep International Airport,36.94720078,37.47869873,2315,AS,TR,TR-27,Gaziantep,yes,LTAJ,GZT,,,http://en.wikipedia.org/wiki/O%C4%9Fuzeli_Airport,
4528,LTBA,large_airport,Atatürk International Airport,40.97689819,28.81459999,163,EU,TR,TR-34,Istanbul,yes,LTBA,IST,,http://www.ataturkairport.com/eng/,http://en.wikipedia.org/wiki/Atat%C3%BCrk_International_Airport,"Ataturk, Yeşilköy, Yesilkoy"
4533,LTBJ,large_airport,Adnan Menderes International Airport,38.29240036,27.15699959,412,AS,TR,TR-35,İzmir,yes,LTBJ,ADB,,http://www.adnanmenderesairport.com,http://en.wikipedia.org/wiki/Adnan_Menderes_Airport,
4542,LTBS,large_airport,Dalaman International Airport,36.71310043,28.79249954,20,AS,TR,TR-48,Dalaman,yes,LTBS,DLM,,,http://en.wikipedia.org/wiki/Dalaman_Airport,
4551,LTCE,large_airport,Erzurum International Airport,39.95650101,41.17020035,5763,AS,TR,TR-25,Erzurum,yes,LTCE,ERZ,,,http://en.wikipedia.org/wiki/Erzurum_Airport,
4553,LTCG,large_airport,Trabzon International Airport,40.99509811,39.78969955,104,AS,TR,TR-61,Trabzon,yes,LTCG,TZX,,,http://en.wikipedia.org/wiki/Trabzon_Airport,
4565,LTFC,large_airport,Süleyman Demirel International Airport,37.85540009,30.36840057,2835,AS,TR,TR-32,Isparta,yes,LTFC,ISE,,http://www.dhmi.gov.tr/dosyalar/limanvemeydanlar/sdemirel/sdemirel.asp,http://en.wikipedia.org/wiki/S%C3%BCleyman_Demirel_Airport,
4567,LTFE,large_airport,Milas Bodrum International Airport,37.25059891,27.66430092,21,AS,TR,TR-48,Bodrum,yes,LTFE,BJV,,,http://en.wikipedia.org/wiki/Milas-Bodrum_Airport,
4569,LTFJ,large_airport,Sabiha Gökçen International Airport,40.89860153,29.30920029,312,AS,TR,TR-34,Istanbul,yes,LTFJ,SAW,,http://www.sgairport.com/,http://en.wikipedia.org/wiki/Sabiha_G%C3%B6k%C3%A7en_International_Airport,Sabiha Gökçen Havalimanı
324609,LU-0007,large_airport,Luxembourg International airport,0,0,,EU,LU,LU-L,,yes,,,,,,
4610,LYBE,large_airport,Belgrade Nikola Tesla Airport,44.81840134,20.3090992,335,EU,RS,RS-00,Belgrade,yes,LYBE,BEG,,http://www.beg.aero/,http://en.wikipedia.org/wiki/Belgrade_Nikola_Tesla_Airport,"Beograd, Surčin Airport"
4613,LYPG,large_airport,Podgorica Airport,42.359402,19.2519,141,EU,ME,ME-16,Podgorica,yes,LYPG,TGD,,http://www.montenegroairports.com/?menu=2,http://en.wikipedia.org/wiki/Podgorica_Airport,"Podgorica Airbase, Golubovci Airbase, Аеродром Подгорица, Aerodrom Podgorica"
4617,LZIB,large_airport,M. R. Štefánik Airport,48.17020035,17.21269989,436,EU,SK,SK-BL,Bratislava,yes,LZIB,BTS,,,http://en.wikipedia.org/wiki/M._R._%C5%A0tef%C3%A1nik_Airport,
4636,MDPC,large_airport,Punta Cana International Airport,18.56739998,-68.36340332,47,NA,DO,DO-11,Punta Cana,yes,MDPC,PUJ,,,http://en.wikipedia.org/wiki/Punta_Cana_International_Airport,
4638,MDSD,large_airport,Las Américas International Airport,18.42970085,-69.66889954,59,NA,DO,DO-01,Santo Domingo,yes,MDSD,SDQ,,http://www.aerodom.com/app/do/lasamericas.aspx,http://en.wikipedia.org/wiki/Las_Am%C3%A9ricas_International_Airport,"Aeropuerto Internacional de Las Américas, José Francisco Peña Gómez Intl"
4680,MKJP,large_airport,Norman Manley International Airport,17.93569946,-76.78749847,10,NA,JM,JM-01,Kingston,yes,MKJP,KIN,,,http://en.wikipedia.org/wiki/Norman_Manley_International_Airport,
4688,MMAA,large_airport,General Juan N Alvarez International Airport,16.75709915,-99.7539978,16,NA,MX,MX-GRO,Acapulco,yes,MMAA,ACA,,,http://en.wikipedia.org/wiki/General_Juan_N._%C3%81lvarez_International_Airport,
4710,MMGL,large_airport,Don Miguel Hidalgo Y Costilla International Airport,20.52179909,-103.310997,5016,NA,MX,MX-JAL,Guadalajara,yes,MMGL,GDL,,,http://en.wikipedia.org/wiki/Don_Miguel_Hidalgo_y_Costilla_International_Airport,
4713,MMHO,large_airport,General Ignacio P. Garcia International Airport,29.09589958,-111.0479965,627,NA,MX,MX-SON,Hermosillo,yes,MMHO,HMO,,,http://en.wikipedia.org/wiki/General_Ignacio_Pesqueira_Garcia_International_Airport,
4731,MMMX,large_airport,Licenciado Benito Juarez International Airport,19.4363,-99.072098,7316,NA,MX,MX-DIF,Mexico City,yes,MMMX,MEX,AICM,https://www.aicm.com.mx,http://en.wikipedia.org/wiki/Mexico_City_International_Airport,
4732,MMMY,large_airport,General Mariano Escobedo International Airport,25.7784996,-100.1070023,1278,NA,MX,MX-NLE,Monterrey,yes,MMMY,MTY,,,http://en.wikipedia.org/wiki/General_Mariano_Escobedo_International_Airport,
4745,MMPR,large_airport,Licenciado Gustavo Díaz Ordaz International Airport,20.68009949,-105.2539978,23,NA,MX,MX-JAL,Puerto Vallarta,yes,MMPR,PVR,,http://vallarta.aeropuertosgap.com.mx/index.php?lang=eng,http://en.wikipedia.org/wiki/Lic._Gustavo_D%C3%ADaz_Ordaz_International_Airport,
4750,MMSD,large_airport,Los Cabos International Airport,23.15180016,-109.7210007,374,NA,MX,MX-BCS,San José del Cabo,yes,MMSD,SJD,,http://loscabos.aeropuertosgap.com.mx/index.php?lang=eng,http://en.wikipedia.org/wiki/Los_Cabos_International_Airport,
4757,MMTJ,large_airport,General Abelardo L. Rodríguez International Airport,32.54109955,-116.9700012,489,NA,MX,MX-BCN,Tijuana,yes,MMTJ,TIJ,,http://aeropuertosgap.com.mx/english/airports/tijuana-airport,http://en.wikipedia.org/wiki/General_Abelardo_L._Rodr%C3%ADguez_International_Airport,
4762,MMUN,large_airport,Cancún International Airport,21.03650093,-86.87709808,22,NA,MX,MX-ROO,Cancún,yes,MMUN,CUN,,http://www.asur.com.mx/asur/ingles/aeropuertos/cancun/cancun.asp,http://en.wikipedia.org/wiki/Canc%C3%BAn_International_Airport,
4793,MPTO,large_airport,Tocumen International Airport,9.071359634,-79.38349915,135,NA,PA,PA-8,Tocumen,yes,MPTO,PTY,,,http://en.wikipedia.org/wiki/Tocumen_International_Airport,La Joya No 1
4820,MSLP,large_airport,Monseñor Óscar Arnulfo Romero International Airport,13.4409,-89.055702,101,NA,SV,SV-PA,San Salvador (San Luis Talpa),yes,MSLP,SAL,,,https://en.wikipedia.org/wiki/Monse%C3%B1or_%C3%93scar_Arnulfo_Romero_International_Airport,
4839,MUHA,large_airport,José Martí International Airport,22.98920059,-82.40910339,210,NA,CU,CU-03,Havana,yes,MUHA,HAV,,,http://en.wikipedia.org/wiki/Jos%C3%A9_Mart%C3%AD_International_Airport,Habana
4859,MUVR,large_airport,Juan Gualberto Gomez International Airport,23.03440094,-81.43530273,210,NA,CU,CU-04,Varadero,yes,MUVR,VRA,,,http://en.wikipedia.org/wiki/Juan_Gualberto_G%C3%B3mez_Airport,
4862,MWCR,large_airport,Owen Roberts International Airport,19.2928009,-81.35769653,8,NA,KY,KY-U-A,Georgetown,yes,MWCR,GCM,,,http://en.wikipedia.org/wiki/Owen_Roberts_International_Airport,"Grand Cayman, George Town"
4951,MYNN,large_airport,Lynden Pindling International Airport,25.03899956,-77.46620178,16,NA,BS,BS-NP,Nassau,yes,MYNN,NAS,,http://www.nas.bs/,http://en.wikipedia.org/wiki/Lynden_Pindling_International_Airport,Nassau International Airport
4956,MZBZ,large_airport,Philip S. W. Goldson International Airport,17.53910065,-88.30819702,15,NA,BZ,BZ-BZ,Belize City,yes,MZBZ,BZE,,http://www.pgiabelize.com/,http://en.wikipedia.org/wiki/Philip_S._W._Goldson_International_Airport,"Belize International, Ladyville"
4958,NCRG,large_airport,Rarotonga International Airport,-21.20269966,-159.8059998,19,OC,CK,CK-U-A,Avarua,yes,NCRG,RAR,,,http://en.wikipedia.org/wiki/Rarotonga_International_Airport,
5023,NZAA,large_airport,Auckland International Airport,-37.0080986,174.7920074,23,OC,NZ,NZ-AUK,Auckland,yes,NZAA,AKL,,http://www.auckland-airport.co.nz/,http://en.wikipedia.org/wiki/Auckland_International_Airport,
5026,NZCH,large_airport,Christchurch International Airport,-43.48939896,172.5319977,123,OC,NZ,NZ-CAN,Christchurch,yes,NZCH,CHC,,http://www.christchurchairport.co.nz/,http://en.wikipedia.org/wiki/Christchurch_International_Airport,
5063,NZWN,large_airport,Wellington International Airport,-41.32720184,174.8049927,41,OC,NZ,NZ-WGN,Wellington,yes,NZWN,WLG,,http://www.wellingtonairport.co.nz/,http://en.wikipedia.org/wiki/Wellington_International_Airport,
5079,OBBI,large_airport,Bahrain International Airport,26.27079964,50.63359833,6,AS,BH,BH-15,Manama,yes,OBBI,BAH,,http://www.bahrainairport.com/,http://en.wikipedia.org/wiki/Bahrain_International_Airport,مطار البحرين الدولي
5087,OEDF,large_airport,King Fahd International Airport,26.47120094,49.79790115,72,AS,SA,SA-04,Ad Dammam,yes,OEDF,DMM,,,http://en.wikipedia.org/wiki/King_Fahd_International_Airport,
5089,OEDR,large_airport,King Abdulaziz Air Base,26.26539993,50.15200043,84,AS,SA,SA-04,,no,OEDR,DHA,,,http://en.wikipedia.org/wiki/Dhahran_International_Airport,
5097,OEJN,large_airport,King Abdulaziz International Airport,21.6796,39.156502,48,AS,SA,SA-02,Jeddah,yes,OEJN,JED,,http://www.jed-airport.com/,http://en.wikipedia.org/wiki/King_Abdulaziz_International_Airport,"Mecca, Hajj"
5101,OEMA,large_airport,Prince Mohammad Bin Abdulaziz Airport,24.5534,39.705101,2151,AS,SA,SA-03,Medina,yes,OEMA,MED,,http://www.tibahairports.com/en-EN/Pages/Main.aspx,http://en.wikipedia.org/wiki/Prince_Mohammad_Bin_Abdulaziz_Airport,Medinah
5112,OERK,large_airport,King Khaled International Airport,24.95759964,46.69879913,2049,AS,SA,SA-01,Riyadh,yes,OERK,RUH,,,http://en.wikipedia.org/wiki/King_Khalid_International_Airport,Riyad
5166,OIIE,large_airport,Imam Khomeini International Airport,35.41609955,51.15219879,3305,AS,IR,IR-07,Tehran,yes,OIIE,IKA,,http://www.ikia.ir/,http://en.wikipedia.org/wiki/Imam_Khomeini_International_Airport,Ahmadabad
5168,OIII,large_airport,Mehrabad International Airport,35.68920135,51.31340027,3962,AS,IR,IR-07,Tehran,yes,OIII,THR,,,http://en.wikipedia.org/wiki/Mehrabad_International_Airport,
5183,OIMM,large_airport,Mashhad International Airport,36.23519897,59.64099884,3263,AS,IR,IR-30,Mashhad,yes,OIMM,MHD,,,http://en.wikipedia.org/wiki/Mashhad_International_Airport,Shahid Hashemi Nejad Airport
5197,OISS,large_airport,Shiraz Shahid Dastghaib International Airport,29.53919983,52.58980179,4920,AS,IR,IR-14,Shiraz,yes,OISS,SYZ,,http://shirazairport.ir/,http://en.wikipedia.org/wiki/Shiraz_International_Airport,
5204,OITT,large_airport,Tabriz International Airport,38.13389969,46.23500061,4459,AS,IR,IR-01,Tabriz,yes,OITT,TBZ,,http://www.tabrizairport.ir/,http://en.wikipedia.org/wiki/Tabriz_International_Airport,IRIAF
5212,OJAI,large_airport,Queen Alia International Airport,31.72260094,35.99319839,2395,AS,JO,JO-AM,Amman,yes,OJAI,AMM,,,http://en.wikipedia.org/wiki/Queen_Alia_International_Airport,
5220,OKBK,large_airport,Kuwait International Airport,29.22660065,47.96889877,206,AS,KW,KW-FA,Kuwait City,yes,OKBK,KWI,,http://www.kuwait-airport.com.kw/Index_e.htm,http://en.wikipedia.org/wiki/Kuwait_International_Airport,Al Mubarak Air Base
5222,OLBA,large_airport,Beirut Rafic Hariri International Airport,33.82089996,35.48839951,87,AS,LB,LB-JL,Beirut,yes,OLBA,BEY,,http://www.beirutairport.gov.lb/,http://en.wikipedia.org/wiki/Beirut_Rafic_Hariri_International_Airport,"Chaldea, Beirut Air Base, مطار بيروت رفيق الحريري الدولي"
299738,OM-0003,large_airport,Duqm Jaaluni Airport,19.5,57.6428,380,AS,OM,OM-WU,Duqm,yes,OODQ,JNJ,,http://www.omanairports.com/,https://en.wikipedia.org/wiki/Duqm_Jaaluni_Airport,
299747,OM-0004,large_airport,Rustaq Airport,23.640556,57.4875,349,AS,OM,OM-BA,Al Masna'ah,no,OORQ,MNH,,,https://en.wikipedia.org/wiki/Rustaq_Airport,"Musanaa, Wadi al Maawil, Al Muladdah"
5226,OMAA,large_airport,Abu Dhabi International Airport,24.43300056,54.65110016,88,AS,AE,AE-AZ,Abu Dhabi,yes,OMAA,AUH,,http://www.abudhabiairport.ae/,http://en.wikipedia.org/wiki/Abu_Dhabi_International_Airport,
5235,OMDB,large_airport,Dubai International Airport,25.25279999,55.36439896,62,AS,AE,AE-DU,Dubai,yes,OMDB,DXB,,http://www.dubaiairport.com/dia/english/home/,http://en.wikipedia.org/wiki/Dubai_International_Airport,مطار دبي الدولي‎
300320,OMDW,large_airport,Al Maktoum International Airport,24.896356,55.161389,114,AS,AE,AE-DU,Jebel Ali,yes,OMDW,DWC,,,http://en.wikipedia.org/wiki/Al_Maktoum_International_Airport,
5239,OMSJ,large_airport,Sharjah International Airport,25.32859993,55.51720047,111,AS,AE,AE-SH,Sharjah,yes,OMSJ,SHJ,,,http://en.wikipedia.org/wiki/Sharjah_International_Airport,
5242,OOMS,large_airport,Muscat International Airport,23.59329987,58.28440094,48,AS,OM,OM-MA,Muscat,yes,OOMS,MCT,,,http://en.wikipedia.org/wiki/Seeb_International_Airport,"Seeb International Airport, Masqat"
5274,OPRN,large_airport,Benazir Bhutto International Airport,33.61669922,73.09919739,1668,AS,PK,PK-IS,Islamabad,yes,OPRN,ISB,,,http://en.wikipedia.org/wiki/Islamabad_International_Airport,"Chaklala Air Base, Islamabad International Airport, Rawalpindi"
41624,OPST,large_airport,Sialkot Airport,32.53555679,74.3638916,837,AS,PK,PK-PB,Sialkot,yes,OPST,SKT,,,http://en.wikipedia.org/wiki/Sialkot_International_Airport,
5289,ORBI,large_airport,Baghdad International Airport,33.26250076,44.23460007,114,AS,IQ,IQ-BG,Baghdad,yes,ORBI,BGW,,,http://en.wikipedia.org/wiki/Baghdad_International_Airport,"SDA, BIAP, VBC, ORBS, Camp Sather, Saddam International Airport, Al Anbar Airport"
5294,ORMM,large_airport,Basrah International Airport,30.54910088,47.66210175,11,AS,IQ,IQ-BA,Basrah,yes,ORMM,BSR,,,http://en.wikipedia.org/wiki/Basra_International_Airport,
5302,OSAP,large_airport,Aleppo International Airport,36.18069839,37.22439957,1276,AS,SY,SY-HL,Aleppo,yes,OSAP,ALP,,http://www.aleppo-airport.com/en/,http://en.wikipedia.org/wiki/Aleppo_International_Airport,مطار حلب الدولي
5303,OSDI,large_airport,Damascus International Airport,33.41149902,36.5155983,2020,AS,SY,SY-DI,Damascus,yes,OSDI,DAM,,,http://en.wikipedia.org/wiki/Damascus_International_Airport,مطار دمشق الدولي
5306,OSLK,large_airport,Bassel Al-Assad International Airport,35.40110016,35.94869995,157,AS,SY,SY-LA,Latakia,yes,OSLK,LTK,,,http://en.wikipedia.org/wiki/Bassel_Al-Assad_International_Airport,مطار الشهيد باسل الأسد الدولي
5360,PAFA,large_airport,Fairbanks International Airport,64.81510162,-147.8560028,439,NA,US,US-AK,Fairbanks,yes,PAFA,FAI,FAI,,http://en.wikipedia.org/wiki/Fairbanks_International_Airport,
5388,PANC,large_airport,Ted Stevens Anchorage International Airport,61.17440033,-149.9960022,152,NA,US,US-AK,Anchorage,yes,PANC,ANC,ANC,,http://en.wikipedia.org/wiki/Ted_Stevens_Anchorage_International_Airport,
5433,PGUM,large_airport,Antonio B. Won Pat International Airport,13.48340034,144.7960052,298,OC,GU,GU-U-A,"Hagåtña, Guam International Airport",yes,PGUM,GUM,GUM,http://www.guamairport.com/,http://en.wikipedia.org/wiki/Antonio_B._Won_Pat_International_Airport,Agana
308633,PH-0001,large_airport,Laguindingan Airport,8.612203,124.456496,190,AS,PH,PH-MSR,Cagayan de Oro City,yes,RPMY,CGY,,http://laguindinganinternationalairport.com/,http://en.wikipedia.org/wiki/Laguindingan_International_Airport,"CGY,Laguindingan,IGN,RPML"
325027,PHL,large_airport,Philadelphia International Airpor,0,0,,NA,US,US-PA,,no,,PHL,,,,
5453,PHNL,large_airport,Daniel K Inouye International Airport,21.32062,-157.924228,13,NA,US,US-HI,Honolulu,yes,PHNL,HNL,HNL,http://hawaii.gov/dot/airports/hnl/,http://en.wikipedia.org/wiki/Honolulu_International_Airport,"Hickam Air Force Base, HIK, PHIK, KHNL, Honolulu International"
30601,PK-0001,large_airport,(Under construction) New Islamabad International Airport,33.560713,72.851613,646,AS,PK,PK-PB,Islamabad,no,OPIS,,,http://www.niia.com.pk/,http://en.wikipedia.org/wiki/New_Islamabad_International_Airport,Fateh Jang
44686,QA-0001,large_airport,Hamad International Airport,25.273056,51.608056,13,AS,QA,QA-DA,Doha,yes,OTHH,DOH,,http://dohahamadairport.com/,http://en.wikipedia.org/wiki/Hamad_International_Airport,New Doha International Airport
5510,RCBS,large_airport,Kinmen Airport,24.4279,118.359001,93,AS,TW,TW-X-KM,Shang-I,yes,RCBS,KNH,,http://www.kma.gov.tw/,http://en.wikipedia.org/wiki/Kinmen_Airport,"Shang Yi Airport, 金門尚義機場, 金门尚义机场, Jīnmén Shàngyì jīchǎng"
5516,RCKH,large_airport,Kaohsiung International Airport,22.57710075,120.3499985,31,AS,TW,TW-KHH,Kaohsiung City,yes,RCKH,KHH,,http://www.kia.gov.tw/english/e_index.asp,http://en.wikipedia.org/wiki/Kaohsiung_International_Airport,"Siaogang International Airport, 高雄國際航空站, 小港國際機場"
5528,RCTP,large_airport,Taiwan Taoyuan International Airport,25.0777,121.233002,106,AS,TW,TW-TAO,Taipei,yes,RCTP,TPE,,http://www.taoyuan-airport.com/,https://zh.wikipedia.org/wiki/%E8%87%BA%E7%81%A3%E6%A1%83%E5%9C%92%E5%9C%8B%E9%9A%9B%E6%A9%9F%E5%A0%B4,"Taiwan Taoyuan International Airport, 臺灣桃園國際機場"
5531,RJAA,large_airport,Narita International Airport,35.76470184,140.3860016,141,AS,JP,JP-12,Tokyo,yes,RJAA,NRT,,,http://en.wikipedia.org/wiki/Narita_International_Airport,"TYO, Tokyo Narita Airport, New Tokyo International Airport"
5536,RJBB,large_airport,Kansai International Airport,34.4272995,135.2440033,26,AS,JP,JP-27,Osaka,yes,RJBB,KIX,,http://www.kansai-airport.or.jp/en/index.asp,http://en.wikipedia.org/wiki/Kansai_International_Airport,OSA
5544,RJCC,large_airport,New Chitose Airport,42.77519989,141.6920013,82,AS,JP,JP-01,Chitose / Tomakomai,yes,RJCC,CTS,,http://www.new-chitose-airport.jp/language/english/,http://en.wikipedia.org/wiki/New_Chitose_Airport,
5564,RJFF,large_airport,Fukuoka Airport,33.58589935,130.451004,32,AS,JP,JP-40,Fukuoka,yes,RJFF,FUK,,http://www.fuk-ab.co.jp/english/frame_index.html,http://en.wikipedia.org/wiki/Fukuoka_Airport,Itazuke Air Base
5566,RJFK,large_airport,Kagoshima Airport,31.80340004,130.7189941,906,AS,JP,JP-46,Kagoshima,yes,RJFK,KOJ,,,http://en.wikipedia.org/wiki/Kagoshima_Airport,
5576,RJGG,large_airport,Chubu Centrair International Airport,34.85839844,136.8049927,15,AS,JP,JP-23,Tokoname,yes,RJGG,NGO,,,http://en.wikipedia.org/wiki/Ch%C5%ABbu_Centrair_International_Airport,
299238,rjns,large_airport,Mt. Fuji Shizuoka Airport,34.79604347,138.1877518,433,AS,JP,JP-22,Makinohara / Shimada,yes,RJNS,FSZ,,http://www.mtfuji-shizuokaairport.jp/english/index.html,http://en.wikipedia.org/wiki/Shizuoka_Airport,
5598,RJOO,large_airport,Osaka International Airport,34.78549957,135.4380035,50,AS,JP,JP-27,Osaka,yes,RJOO,ITM,,,http://en.wikipedia.org/wiki/Osaka_International_Airport,"OSA, Itami"
5627,RJTT,large_airport,Tokyo Haneda International Airport,35.552299,139.779999,35,AS,JP,JP-13,Tokyo,yes,RJTT,HND,,http://www.haneda-airport.jp/,http://en.wikipedia.org/wiki/Tokyo_International_Airport,"TYO, Haneda"
5629,RJTY,large_airport,Yokota Air Base,35.74850082,139.3480072,463,AS,JP,JP-13,Fussa,no,RJTY,OKO,,,http://en.wikipedia.org/wiki/Yokota_Air_Base,
302303,RKJB,large_airport,Muan International Airport,34.991406,126.382814,35,AS,KR,KR-46,Piseo-ri (Muan),yes,RKJB,MWX,,http://muan.airport.co.kr/doc/muan_eng/,http://en.wikipedia.org/wiki/Muan_International_Airport,"Gwangju, Mokpo, Muan, MWX, RKJB"
5631,RKJK,large_airport,Kunsan Air Base,35.90380096,126.6159973,29,AS,KR,KR-45,Kunsan,yes,RKJK,KUV,,,http://en.wikipedia.org/wiki/Gunsan_Airport,
5639,RKPC,large_airport,Jeju International Airport,33.51129913,126.4929962,118,AS,KR,KR-49,Jeju City,yes,RKPC,CJU,,,http://en.wikipedia.org/wiki/Jeju_International_Airport,
5642,RKPK,large_airport,Gimhae International Airport,35.17950058,128.9380035,6,AS,KR,KR-26,Busan,yes,RKPK,PUS,,http://gimhae.airport.co.kr/eng/index.jsp,http://en.wikipedia.org/wiki/Gimhae_International_Airport,"Kimhae, Pusan"
5653,RKSI,large_airport,Incheon International Airport,37.46910095,126.4509964,23,AS,KR,KR-28,Seoul,yes,RKSI,ICN,,,http://en.wikipedia.org/wiki/Incheon_International_Airport,
5655,RKSO,large_airport,Osan Air Base,37.090599,127.029999,38,AS,KR,KR-41,,no,RKSO,OSN,,,https://en.wikipedia.org/wiki/Osan_Air_Base,
5656,RKSS,large_airport,Gimpo International Airport,37.55830002,126.7910004,58,AS,KR,KR-11,Seoul,yes,RKSS,GMP,,http://gimpo.airport.co.kr/eng/index.jsp,http://en.wikipedia.org/wiki/Gimpo_International_Airport,
5663,RKTU,large_airport,Cheongju International Airport/Cheongju Air Base (K-59/G-513),36.717008,127.498741,191,AS,KR,KR-43,Cheongju,yes,RKTU,CJJ,,http://cheongju.airport.co.kr/doc/cheongju_eng/,http://en.wikipedia.org/wiki/Cheongju_Airport,
5671,ROAH,large_airport,Naha Airport,26.19580078,127.6460037,12,AS,JP,JP-47,Naha,yes,ROAH,OKA,,http://www.naha-airport.co.jp/,http://en.wikipedia.org/wiki/Naha_Airport,"那覇空港, Naha Kūkō?, AHA, Naha AFB"
5673,RODN,large_airport,Kadena Air Base,26.3556,127.767998,143,AS,JP,JP-47,,no,RODN,DNA,,,https://en.wikipedia.org/wiki/Kadena_Air_Base,
5687,RPLC,large_airport,Clark International Airport,15.18599987,120.5599976,484,AS,PH,PH-PAM,Angeles City,yes,RPLC,CRK,,http://www.clarkairport.com/,http://en.wikipedia.org/wiki/Diosdado_Macapagal_International_Airport,"Diosdado Macapagal International Airport, Paliparang Pandaigdig ng Diosdado Macapagal, Clark Air Base"
5689,RPLL,large_airport,Ninoy Aquino International Airport,14.5086,121.019997,75,AS,PH,PH-U-A,Manila,yes,RPLL,MNL,,,http://en.wikipedia.org/wiki/Ninoy_Aquino_International_Airport,Manila International Airport
5697,RPMD,large_airport,Francisco Bangoy International Airport,7.125520229,125.6460037,96,AS,PH,PH-DAV,Davao City,yes,RPMD,DVO,,,http://en.wikipedia.org/wiki/Francisco_Bangoy_International_Airport,Davao International Airport
5742,RPVM,large_airport,Mactan Cebu International Airport,10.30749989,123.9789963,31,AS,PH,PH-CEB,Lapu-Lapu City,yes,RPVM,CEB,,http://www.mactan-cebuairport.com.ph/,http://en.wikipedia.org/wiki/Mactan-Cebu_International_Airport,
41136,RU-0016,large_airport,Lipetsk Air Base,52.63499832,39.44499969,636,EU,RU,RU-LIP,Lipetsk,no,,,,,http://en.wikipedia.org/wiki/Lipetsk_Air_Base,
42924,RU-0035,large_airport,Grozny North Airport,43.388302,45.698601,548,EU,RU,RU-CE,Grozny,yes,URMG,GRV,,,https://en.wikipedia.org/wiki/Grozny_Airport,"Grozny Severny, Grozny, Аэропорт Грозный Северный, Аэропорт Грозный"
35102,RU-2244,large_airport,Ukrainka Air Base,51.169997,128.445007,771,EU,RU,RU-AMU,Belogorsk,no,,,XHBU,,http://en.wikipedia.org/wiki/Ukrainka_(air_base),"ЬХБУ, Украинка"
35046,RU-4464,large_airport,Olenya Air Base,68.15180206,33.46390152,702,EU,RU,RU-MUR,Olenegorsk,no,,,XLMO,,http://en.wikipedia.org/wiki/Olenya_(air_base),"ЬЛМО, Оленья, Olenegorsk"
5781,SAEZ,large_airport,Ministro Pistarini International Airport,-34.8222,-58.5358,67,SA,AR,AR-B,Buenos Aires,yes,SAEZ,EZE,EZE,http://www.aa2000.com.ar/index.php,http://en.wikipedia.org/wiki/Ministro_Pistarini_International_Airport,BUE
5867,SBBE,large_airport,Val de Cans/Júlio Cezar Ribeiro International Airport,-1.37925005,-48.47629929,54,SA,BR,BR-PA,Belém,yes,SBBE,BEL,,http://www.infraero.gov.br/index.php/br/aeroportos/para/aeroporto-internacional-de-belem.html,http://en.wikipedia.org/wiki/Val_de_Cans_International_Airport,
5872,SBBR,large_airport,Presidente Juscelino Kubistschek International Airport,-15.86916733,-47.92083359,3497,SA,BR,BR-DF,Brasília,yes,SBBR,BSB,,http://www.infraero.gov.br/usa/aero_prev_home.php?ai=146,http://en.wikipedia.org/wiki/Bras%C3%ADlia_International_Airport,http://www.infraero.gov.br/usa/aero_prev_home.php?ai=146
5882,SBCF,large_airport,Tancredo Neves International Airport,-19.62444305,-43.9719429,2715,SA,BR,BR-MG,Belo Horizonte,yes,SBCF,CNF,,http://www.infraero.gov.br/usa/aero_prev_home.php?ai=207,http://en.wikipedia.org/wiki/Tancredo_Neves_International_Airport,http://www.infraero.gov.br/usa/aero_prev_home.php?ai=207
5891,SBCT,large_airport,Afonso Pena Airport,-25.5284996,-49.17580032,2988,SA,BR,BR-PR,Curitiba,yes,SBCT,CWB,,,http://en.wikipedia.org/wiki/Afonso_Pena_International_Airport,
5901,SBFL,large_airport,Hercílio Luz International Airport,-27.67027855,-48.55250168,16,SA,BR,BR-SC,Florianópolis,yes,SBFL,FLN,,http://www.infraero.gov.br/usa/aero_prev_home.php?ai=228,http://en.wikipedia.org/wiki/Herc%C3%ADlio_Luz_International_Airport,http://www.infraero.gov.br/usa/aero_prev_home.php?ai=228
5906,SBGL,large_airport,Rio Galeão – Tom Jobim International Airport,-22.80999947,-43.25055695,28,SA,BR,BR-RJ,Rio De Janeiro,yes,SBGL,GIG,,,http://en.wikipedia.org/wiki/Rio_de_Janeiro-Gale%C3%A3o_International_Airport,Galeão - Antônio Carlos Jobim International Airport
